[{"kommunenummer":"0101","navn":"Halden","\u00e5r":2019,"befolkning":31177,"latitude":59.0859573226,"longitude":11.4984047695,"fylke_navn_2019":"\u00d8STFOLD","fylke_navn_2020":"VIKEN"},{"kommunenummer":"0104","navn":"Moss","\u00e5r":2019,"befolkning":32726,"latitude":59.4518762192,"longitude":10.6947854837,"fylke_navn_2019":"\u00d8STFOLD","fylke_navn_2020":"VIKEN"},{"kommunenummer":"0105","navn":"Sarpsborg","\u00e5r":2019,"befolkning":55997,"latitude":59.2880441709,"longitude":11.1618665744,"fylke_navn_2019":"\u00d8STFOLD","fylke_navn_2020":"VIKEN"},{"kommunenummer":"0106","navn":"Fredrikstad","\u00e5r":2019,"befolkning":81772,"latitude":59.2305782,"longitude":10.9375066516,"fylke_navn_2019":"\u00d8STFOLD","fylke_navn_2020":"VIKEN"},{"kommunenummer":"0111","navn":"Hvaler","\u00e5r":2019,"befolkning":4599,"latitude":59.0716044727,"longitude":10.9651551463,"fylke_navn_2019":"\u00d8STFOLD","fylke_navn_2020":"VIKEN"},{"kommunenummer":"0118","navn":"Aremark","\u00e5r":2019,"befolkning":1357,"latitude":59.2155556897,"longitude":11.6961057501,"fylke_navn_2019":"\u00d8STFOLD","fylke_navn_2020":"VIKEN"},{"kommunenummer":"0119","navn":"Marker","\u00e5r":2019,"befolkning":3592,"latitude":59.4857346449,"longitude":11.6523724434,"fylke_navn_2019":"\u00d8STFOLD","fylke_navn_2020":"VIKEN"},{"kommunenummer":"0121","navn":"R\u00f8mskog","\u00e5r":2019,"befolkning":673,"latitude":59.7137974669,"longitude":11.8068211563,"fylke_navn_2019":"\u00d8STFOLD","fylke_navn_2020":"VIKEN"},{"kommunenummer":"0122","navn":"Tr\u00f8gstad","\u00e5r":2019,"befolkning":5347,"latitude":59.6624351701,"longitude":11.3331510102,"fylke_navn_2019":"\u00d8STFOLD","fylke_navn_2020":"VIKEN"},{"kommunenummer":"0123","navn":"Spydeberg","\u00e5r":2019,"befolkning":6042,"latitude":59.607316467,"longitude":11.0818412081,"fylke_navn_2019":"\u00d8STFOLD","fylke_navn_2020":"VIKEN"},{"kommunenummer":"0124","navn":"Askim","\u00e5r":2019,"befolkning":15865,"latitude":59.5945359775,"longitude":11.1739404733,"fylke_navn_2019":"\u00d8STFOLD","fylke_navn_2020":"VIKEN"},{"kommunenummer":"0125","navn":"Eidsberg","\u00e5r":2019,"befolkning":11424,"latitude":59.5326103409,"longitude":11.3729859806,"fylke_navn_2019":"\u00d8STFOLD","fylke_navn_2020":"VIKEN"},{"kommunenummer":"0127","navn":"Skiptvet","\u00e5r":2019,"befolkning":3797,"latitude":59.4810764614,"longitude":11.1528294954,"fylke_navn_2019":"\u00d8STFOLD","fylke_navn_2020":"VIKEN"},{"kommunenummer":"0128","navn":"Rakkestad","\u00e5r":2019,"befolkning":8230,"latitude":59.3727135038,"longitude":11.4162953995,"fylke_navn_2019":"\u00d8STFOLD","fylke_navn_2020":"VIKEN"},{"kommunenummer":"0135","navn":"R\u00e5de","\u00e5r":2019,"befolkning":7542,"latitude":59.346609631,"longitude":10.861806171,"fylke_navn_2019":"\u00d8STFOLD","fylke_navn_2020":"VIKEN"},{"kommunenummer":"0136","navn":"Rygge","\u00e5r":2019,"befolkning":16145,"latitude":59.3769360218,"longitude":10.7156083362,"fylke_navn_2019":"\u00d8STFOLD","fylke_navn_2020":"VIKEN"},{"kommunenummer":"0137","navn":"V\u00e5ler","\u00e5r":2019,"befolkning":5593,"latitude":59.4579246199,"longitude":10.9324175325,"fylke_navn_2019":"\u00d8STFOLD","fylke_navn_2020":"VIKEN"},{"kommunenummer":"0138","navn":"Hob\u00f8l","\u00e5r":2019,"befolkning":5642,"latitude":59.600963062,"longitude":10.9414552761,"fylke_navn_2019":"\u00d8STFOLD","fylke_navn_2020":"VIKEN"},{"kommunenummer":"0211","navn":"Vestby","\u00e5r":2019,"befolkning":17824,"latitude":59.5679322106,"longitude":10.7375724889,"fylke_navn_2019":"AKERSHUS","fylke_navn_2020":"VIKEN"},{"kommunenummer":"0213","navn":"Ski","\u00e5r":2019,"befolkning":30843,"latitude":59.7285576753,"longitude":10.9016993067,"fylke_navn_2019":"AKERSHUS","fylke_navn_2020":"VIKEN"},{"kommunenummer":"0214","navn":"\u00c5s","\u00e5r":2019,"befolkning":20335,"latitude":59.6769038226,"longitude":10.7850620225,"fylke_navn_2019":"AKERSHUS","fylke_navn_2020":"VIKEN"},{"kommunenummer":"0215","navn":"Frogn","\u00e5r":2019,"befolkning":15761,"latitude":59.7034611208,"longitude":10.6705826566,"fylke_navn_2019":"AKERSHUS","fylke_navn_2020":"VIKEN"},{"kommunenummer":"0216","navn":"Nesodden","\u00e5r":2019,"befolkning":19488,"latitude":59.7921964579,"longitude":10.6453285036,"fylke_navn_2019":"AKERSHUS","fylke_navn_2020":"VIKEN"},{"kommunenummer":"0217","navn":"Oppeg\u00e5rd","\u00e5r":2019,"befolkning":27394,"latitude":59.7912601021,"longitude":10.7845415665,"fylke_navn_2019":"AKERSHUS","fylke_navn_2020":"VIKEN"},{"kommunenummer":"0219","navn":"B\u00e6rum","\u00e5r":2019,"befolkning":126841,"latitude":59.9427712454,"longitude":10.495685106,"fylke_navn_2019":"AKERSHUS","fylke_navn_2020":"VIKEN"},{"kommunenummer":"0220","navn":"Asker","\u00e5r":2019,"befolkning":61523,"latitude":59.834410371,"longitude":10.4193980091,"fylke_navn_2019":"AKERSHUS","fylke_navn_2020":"VIKEN"},{"kommunenummer":"0221","navn":"Aurskog-H\u00f8land","\u00e5r":2019,"befolkning":16500,"latitude":59.8400806414,"longitude":11.5755780498,"fylke_navn_2019":"AKERSHUS","fylke_navn_2020":"VIKEN"},{"kommunenummer":"0226","navn":"S\u00f8rum","\u00e5r":2019,"befolkning":18263,"latitude":59.9951619621,"longitude":11.2587795631,"fylke_navn_2019":"AKERSHUS","fylke_navn_2020":"VIKEN"},{"kommunenummer":"0227","navn":"Fet","\u00e5r":2019,"befolkning":11842,"latitude":59.8761503645,"longitude":11.2207461032,"fylke_navn_2019":"AKERSHUS","fylke_navn_2020":"VIKEN"},{"kommunenummer":"0228","navn":"R\u00e6lingen","\u00e5r":2019,"befolkning":18161,"latitude":59.8823415728,"longitude":11.0782714523,"fylke_navn_2019":"AKERSHUS","fylke_navn_2020":"VIKEN"},{"kommunenummer":"0229","navn":"Enebakk","\u00e5r":2019,"befolkning":11026,"latitude":59.7665437994,"longitude":11.1030947918,"fylke_navn_2019":"AKERSHUS","fylke_navn_2020":"VIKEN"},{"kommunenummer":"0230","navn":"L\u00f8renskog","\u00e5r":2019,"befolkning":40106,"latitude":59.8933805712,"longitude":10.9687989852,"fylke_navn_2019":"AKERSHUS","fylke_navn_2020":"VIKEN"},{"kommunenummer":"0231","navn":"Skedsmo","\u00e5r":2019,"befolkning":55652,"latitude":59.9867687882,"longitude":11.0413249151,"fylke_navn_2019":"AKERSHUS","fylke_navn_2020":"VIKEN"},{"kommunenummer":"0233","navn":"Nittedal","\u00e5r":2019,"befolkning":24089,"latitude":60.0829193112,"longitude":10.8546647401,"fylke_navn_2019":"AKERSHUS","fylke_navn_2020":"VIKEN"},{"kommunenummer":"0234","navn":"Gjerdrum","\u00e5r":2019,"befolkning":6823,"latitude":60.0805135623,"longitude":11.0129566756,"fylke_navn_2019":"AKERSHUS","fylke_navn_2020":"VIKEN"},{"kommunenummer":"0235","navn":"Ullensaker","\u00e5r":2019,"befolkning":38234,"latitude":60.151298735,"longitude":11.1984062737,"fylke_navn_2019":"AKERSHUS","fylke_navn_2020":"VIKEN"},{"kommunenummer":"0236","navn":"Nes","\u00e5r":2019,"befolkning":21885,"latitude":60.1400785256,"longitude":11.5024042961,"fylke_navn_2019":"AKERSHUS","fylke_navn_2020":"VIKEN"},{"kommunenummer":"0237","navn":"Eidsvoll","\u00e5r":2019,"befolkning":24919,"latitude":60.3924061871,"longitude":11.2275602576,"fylke_navn_2019":"AKERSHUS","fylke_navn_2020":"VIKEN"},{"kommunenummer":"0238","navn":"Nannestad","\u00e5r":2019,"befolkning":13682,"latitude":60.2341243959,"longitude":10.9615393343,"fylke_navn_2019":"AKERSHUS","fylke_navn_2020":"VIKEN"},{"kommunenummer":"0239","navn":"Hurdal","\u00e5r":2019,"befolkning":2864,"latitude":60.4301097342,"longitude":10.9496689532,"fylke_navn_2019":"AKERSHUS","fylke_navn_2020":"VIKEN"},{"kommunenummer":"0301","navn":"Oslo","\u00e5r":2019,"befolkning":681071,"latitude":59.9820649126,"longitude":10.7401276475,"fylke_navn_2019":"OSLO","fylke_navn_2020":"OSLO"},{"kommunenummer":"0402","navn":"Kongsvinger","\u00e5r":2019,"befolkning":17823,"latitude":60.2152189573,"longitude":12.2182995278,"fylke_navn_2019":"HEDMARK","fylke_navn_2020":"INNLANDET"},{"kommunenummer":"0403","navn":"Hamar","\u00e5r":2019,"befolkning":31144,"latitude":60.951179134,"longitude":11.1434219473,"fylke_navn_2019":"HEDMARK","fylke_navn_2020":"INNLANDET"},{"kommunenummer":"0412","navn":"Ringsaker","\u00e5r":2019,"befolkning":34488,"latitude":60.9958424324,"longitude":10.8508987954,"fylke_navn_2019":"HEDMARK","fylke_navn_2020":"INNLANDET"},{"kommunenummer":"0415","navn":"L\u00f8ten","\u00e5r":2019,"befolkning":7663,"latitude":60.849278649,"longitude":11.3910483035,"fylke_navn_2019":"HEDMARK","fylke_navn_2020":"INNLANDET"},{"kommunenummer":"0417","navn":"Stange","\u00e5r":2019,"befolkning":20916,"latitude":60.6442611005,"longitude":11.3331897408,"fylke_navn_2019":"HEDMARK","fylke_navn_2020":"INNLANDET"},{"kommunenummer":"0418","navn":"Nord-Odal","\u00e5r":2019,"befolkning":5024,"latitude":60.438294956,"longitude":11.5824047289,"fylke_navn_2019":"HEDMARK","fylke_navn_2020":"INNLANDET"},{"kommunenummer":"0419","navn":"S\u00f8r-Odal","\u00e5r":2019,"befolkning":7879,"latitude":60.2242116265,"longitude":11.75407921,"fylke_navn_2019":"HEDMARK","fylke_navn_2020":"INNLANDET"},{"kommunenummer":"0420","navn":"Eidskog","\u00e5r":2019,"befolkning":6114,"latitude":59.9960958338,"longitude":12.0616990397,"fylke_navn_2019":"HEDMARK","fylke_navn_2020":"INNLANDET"},{"kommunenummer":"0423","navn":"Grue","\u00e5r":2019,"befolkning":4646,"latitude":60.4417527189,"longitude":12.2268971524,"fylke_navn_2019":"HEDMARK","fylke_navn_2020":"INNLANDET"},{"kommunenummer":"0425","navn":"\u00c5snes","\u00e5r":2019,"befolkning":7214,"latitude":60.6514127291,"longitude":12.1682689373,"fylke_navn_2019":"HEDMARK","fylke_navn_2020":"INNLANDET"},{"kommunenummer":"0426","navn":"V\u00e5ler","\u00e5r":2019,"befolkning":3705,"latitude":60.7842155569,"longitude":11.9515697612,"fylke_navn_2019":"HEDMARK","fylke_navn_2020":"INNLANDET"},{"kommunenummer":"0427","navn":"Elverum","\u00e5r":2019,"befolkning":21191,"latitude":60.959278149,"longitude":11.7364203484,"fylke_navn_2019":"HEDMARK","fylke_navn_2020":"INNLANDET"},{"kommunenummer":"0428","navn":"Trysil","\u00e5r":2019,"befolkning":6607,"latitude":61.328605839,"longitude":12.2886390301,"fylke_navn_2019":"HEDMARK","fylke_navn_2020":"INNLANDET"},{"kommunenummer":"0429","navn":"\u00c5mot","\u00e5r":2019,"befolkning":4407,"latitude":61.2552397658,"longitude":11.5003380612,"fylke_navn_2019":"HEDMARK","fylke_navn_2020":"INNLANDET"},{"kommunenummer":"0430","navn":"Stor-Elvdal","\u00e5r":2019,"befolkning":2459,"latitude":61.5892175678,"longitude":10.7820352636,"fylke_navn_2019":"HEDMARK","fylke_navn_2020":"INNLANDET"},{"kommunenummer":"0432","navn":"Rendalen","\u00e5r":2019,"befolkning":1791,"latitude":61.8192553905,"longitude":11.2771351904,"fylke_navn_2019":"HEDMARK","fylke_navn_2020":"INNLANDET"},{"kommunenummer":"0434","navn":"Engerdal","\u00e5r":2019,"befolkning":1286,"latitude":61.9824844052,"longitude":11.9543400951,"fylke_navn_2019":"HEDMARK","fylke_navn_2020":"INNLANDET"},{"kommunenummer":"0436","navn":"Tolga","\u00e5r":2019,"befolkning":1551,"latitude":62.3569554876,"longitude":11.0807747014,"fylke_navn_2019":"HEDMARK","fylke_navn_2020":"INNLANDET"},{"kommunenummer":"0437","navn":"Tynset","\u00e5r":2019,"befolkning":5591,"latitude":62.4007714383,"longitude":10.539452723,"fylke_navn_2019":"HEDMARK","fylke_navn_2020":"INNLANDET"},{"kommunenummer":"0438","navn":"Alvdal","\u00e5r":2019,"befolkning":2418,"latitude":62.0676548676,"longitude":10.5070481792,"fylke_navn_2019":"HEDMARK","fylke_navn_2020":"INNLANDET"},{"kommunenummer":"0439","navn":"Folldal","\u00e5r":2019,"befolkning":1577,"latitude":62.1748015483,"longitude":10.0194558863,"fylke_navn_2019":"HEDMARK","fylke_navn_2020":"INNLANDET"},{"kommunenummer":"0441","navn":"Os","\u00e5r":2019,"befolkning":1912,"latitude":62.446197425,"longitude":11.3077708253,"fylke_navn_2019":"HEDMARK","fylke_navn_2020":"INNLANDET"},{"kommunenummer":"0501","navn":"Lillehammer","\u00e5r":2019,"befolkning":28023,"latitude":61.1278170495,"longitude":10.3922277103,"fylke_navn_2019":"OPPLAND","fylke_navn_2020":"VIKEN"},{"kommunenummer":"0501","navn":"Lillehammer","\u00e5r":2019,"befolkning":28023,"latitude":61.1278170495,"longitude":10.3922277103,"fylke_navn_2019":"OPPLAND","fylke_navn_2020":"INNLANDET"},{"kommunenummer":"0502","navn":"Gj\u00f8vik","\u00e5r":2019,"befolkning":30676,"latitude":60.8874226415,"longitude":10.4703490163,"fylke_navn_2019":"OPPLAND","fylke_navn_2020":"VIKEN"},{"kommunenummer":"0502","navn":"Gj\u00f8vik","\u00e5r":2019,"befolkning":30676,"latitude":60.8874226415,"longitude":10.4703490163,"fylke_navn_2019":"OPPLAND","fylke_navn_2020":"INNLANDET"},{"kommunenummer":"0511","navn":"Dovre","\u00e5r":2019,"befolkning":2615,"latitude":62.0788866702,"longitude":9.4588388644,"fylke_navn_2019":"OPPLAND","fylke_navn_2020":"VIKEN"},{"kommunenummer":"0511","navn":"Dovre","\u00e5r":2019,"befolkning":2615,"latitude":62.0788866702,"longitude":9.4588388644,"fylke_navn_2019":"OPPLAND","fylke_navn_2020":"INNLANDET"},{"kommunenummer":"0512","navn":"Lesja","\u00e5r":2019,"befolkning":2009,"latitude":62.1914306927,"longitude":8.6357141816,"fylke_navn_2019":"OPPLAND","fylke_navn_2020":"VIKEN"},{"kommunenummer":"0512","navn":"Lesja","\u00e5r":2019,"befolkning":2009,"latitude":62.1914306927,"longitude":8.6357141816,"fylke_navn_2019":"OPPLAND","fylke_navn_2020":"INNLANDET"},{"kommunenummer":"0513","navn":"Skj\u00e5k","\u00e5r":2019,"befolkning":2204,"latitude":61.9335858084,"longitude":7.8867244153,"fylke_navn_2019":"OPPLAND","fylke_navn_2020":"VIKEN"},{"kommunenummer":"0513","navn":"Skj\u00e5k","\u00e5r":2019,"befolkning":2204,"latitude":61.9335858084,"longitude":7.8867244153,"fylke_navn_2019":"OPPLAND","fylke_navn_2020":"INNLANDET"},{"kommunenummer":"0514","navn":"Lom","\u00e5r":2019,"befolkning":2293,"latitude":61.7144340896,"longitude":8.4805830955,"fylke_navn_2019":"OPPLAND","fylke_navn_2020":"VIKEN"},{"kommunenummer":"0514","navn":"Lom","\u00e5r":2019,"befolkning":2293,"latitude":61.7144340896,"longitude":8.4805830955,"fylke_navn_2019":"OPPLAND","fylke_navn_2020":"INNLANDET"},{"kommunenummer":"0515","navn":"V\u00e5g\u00e5","\u00e5r":2019,"befolkning":3589,"latitude":61.6735844234,"longitude":8.9529006522,"fylke_navn_2019":"OPPLAND","fylke_navn_2020":"VIKEN"},{"kommunenummer":"0515","navn":"V\u00e5g\u00e5","\u00e5r":2019,"befolkning":3589,"latitude":61.6735844234,"longitude":8.9529006522,"fylke_navn_2019":"OPPLAND","fylke_navn_2020":"INNLANDET"},{"kommunenummer":"0516","navn":"Nord-Fron","\u00e5r":2019,"befolkning":5742,"latitude":61.5829706038,"longitude":9.5221737765,"fylke_navn_2019":"OPPLAND","fylke_navn_2020":"VIKEN"},{"kommunenummer":"0516","navn":"Nord-Fron","\u00e5r":2019,"befolkning":5742,"latitude":61.5829706038,"longitude":9.5221737765,"fylke_navn_2019":"OPPLAND","fylke_navn_2020":"INNLANDET"},{"kommunenummer":"0517","navn":"Sel","\u00e5r":2019,"befolkning":5789,"latitude":61.7740695256,"longitude":9.4756345526,"fylke_navn_2019":"OPPLAND","fylke_navn_2020":"VIKEN"},{"kommunenummer":"0517","navn":"Sel","\u00e5r":2019,"befolkning":5789,"latitude":61.7740695256,"longitude":9.4756345526,"fylke_navn_2019":"OPPLAND","fylke_navn_2020":"INNLANDET"},{"kommunenummer":"0519","navn":"S\u00f8r-Fron","\u00e5r":2019,"befolkning":3127,"latitude":61.5380537614,"longitude":9.7893837841,"fylke_navn_2019":"OPPLAND","fylke_navn_2020":"VIKEN"},{"kommunenummer":"0519","navn":"S\u00f8r-Fron","\u00e5r":2019,"befolkning":3127,"latitude":61.5380537614,"longitude":9.7893837841,"fylke_navn_2019":"OPPLAND","fylke_navn_2020":"INNLANDET"},{"kommunenummer":"0520","navn":"Ringebu","\u00e5r":2019,"befolkning":4425,"latitude":61.5576848058,"longitude":10.3193928621,"fylke_navn_2019":"OPPLAND","fylke_navn_2020":"VIKEN"},{"kommunenummer":"0520","navn":"Ringebu","\u00e5r":2019,"befolkning":4425,"latitude":61.5576848058,"longitude":10.3193928621,"fylke_navn_2019":"OPPLAND","fylke_navn_2020":"INNLANDET"},{"kommunenummer":"0521","navn":"\u00d8yer","\u00e5r":2019,"befolkning":5119,"latitude":61.3198892155,"longitude":10.5364910822,"fylke_navn_2019":"OPPLAND","fylke_navn_2020":"VIKEN"},{"kommunenummer":"0521","navn":"\u00d8yer","\u00e5r":2019,"befolkning":5119,"latitude":61.3198892155,"longitude":10.5364910822,"fylke_navn_2019":"OPPLAND","fylke_navn_2020":"INNLANDET"},{"kommunenummer":"0522","navn":"Gausdal","\u00e5r":2019,"befolkning":6112,"latitude":61.2714814406,"longitude":9.8606938309,"fylke_navn_2019":"OPPLAND","fylke_navn_2020":"VIKEN"},{"kommunenummer":"0522","navn":"Gausdal","\u00e5r":2019,"befolkning":6112,"latitude":61.2714814406,"longitude":9.8606938309,"fylke_navn_2019":"OPPLAND","fylke_navn_2020":"INNLANDET"},{"kommunenummer":"0528","navn":"\u00d8stre Toten","\u00e5r":2019,"befolkning":14948,"latitude":60.608278428,"longitude":10.8897914051,"fylke_navn_2019":"OPPLAND","fylke_navn_2020":"VIKEN"},{"kommunenummer":"0528","navn":"\u00d8stre Toten","\u00e5r":2019,"befolkning":14948,"latitude":60.608278428,"longitude":10.8897914051,"fylke_navn_2019":"OPPLAND","fylke_navn_2020":"INNLANDET"},{"kommunenummer":"0529","navn":"Vestre Toten","\u00e5r":2019,"befolkning":13384,"latitude":60.6458336554,"longitude":10.6239007683,"fylke_navn_2019":"OPPLAND","fylke_navn_2020":"VIKEN"},{"kommunenummer":"0529","navn":"Vestre Toten","\u00e5r":2019,"befolkning":13384,"latitude":60.6458336554,"longitude":10.6239007683,"fylke_navn_2019":"OPPLAND","fylke_navn_2020":"INNLANDET"},{"kommunenummer":"0532","navn":"Jevnaker","\u00e5r":2019,"befolkning":6846,"latitude":60.2800929081,"longitude":10.3929147056,"fylke_navn_2019":"OPPLAND","fylke_navn_2020":"VIKEN"},{"kommunenummer":"0532","navn":"Jevnaker","\u00e5r":2019,"befolkning":6846,"latitude":60.2800929081,"longitude":10.3929147056,"fylke_navn_2019":"OPPLAND","fylke_navn_2020":"INNLANDET"},{"kommunenummer":"0533","navn":"Lunner","\u00e5r":2019,"befolkning":9051,"latitude":60.2445062684,"longitude":10.6638400343,"fylke_navn_2019":"OPPLAND","fylke_navn_2020":"VIKEN"},{"kommunenummer":"0533","navn":"Lunner","\u00e5r":2019,"befolkning":9051,"latitude":60.2445062684,"longitude":10.6638400343,"fylke_navn_2019":"OPPLAND","fylke_navn_2020":"INNLANDET"},{"kommunenummer":"0534","navn":"Gran","\u00e5r":2019,"befolkning":13642,"latitude":60.4295849778,"longitude":10.5145304401,"fylke_navn_2019":"OPPLAND","fylke_navn_2020":"VIKEN"},{"kommunenummer":"0534","navn":"Gran","\u00e5r":2019,"befolkning":13642,"latitude":60.4295849778,"longitude":10.5145304401,"fylke_navn_2019":"OPPLAND","fylke_navn_2020":"INNLANDET"},{"kommunenummer":"0536","navn":"S\u00f8ndre Land","\u00e5r":2019,"befolkning":5623,"latitude":60.6766038518,"longitude":10.271336247,"fylke_navn_2019":"OPPLAND","fylke_navn_2020":"VIKEN"},{"kommunenummer":"0536","navn":"S\u00f8ndre Land","\u00e5r":2019,"befolkning":5623,"latitude":60.6766038518,"longitude":10.271336247,"fylke_navn_2019":"OPPLAND","fylke_navn_2020":"INNLANDET"},{"kommunenummer":"0538","navn":"Nordre Land","\u00e5r":2019,"befolkning":6671,"latitude":60.9459790669,"longitude":9.9695244587,"fylke_navn_2019":"OPPLAND","fylke_navn_2020":"VIKEN"},{"kommunenummer":"0538","navn":"Nordre Land","\u00e5r":2019,"befolkning":6671,"latitude":60.9459790669,"longitude":9.9695244587,"fylke_navn_2019":"OPPLAND","fylke_navn_2020":"INNLANDET"},{"kommunenummer":"0540","navn":"S\u00f8r-Aurdal","\u00e5r":2019,"befolkning":2981,"latitude":60.6795196738,"longitude":9.6307543499,"fylke_navn_2019":"OPPLAND","fylke_navn_2020":"VIKEN"},{"kommunenummer":"0540","navn":"S\u00f8r-Aurdal","\u00e5r":2019,"befolkning":2981,"latitude":60.6795196738,"longitude":9.6307543499,"fylke_navn_2019":"OPPLAND","fylke_navn_2020":"INNLANDET"},{"kommunenummer":"0541","navn":"Etnedal","\u00e5r":2019,"befolkning":1305,"latitude":60.9745503239,"longitude":9.6409024584,"fylke_navn_2019":"OPPLAND","fylke_navn_2020":"VIKEN"},{"kommunenummer":"0541","navn":"Etnedal","\u00e5r":2019,"befolkning":1305,"latitude":60.9745503239,"longitude":9.6409024584,"fylke_navn_2019":"OPPLAND","fylke_navn_2020":"INNLANDET"},{"kommunenummer":"0542","navn":"Nord-Aurdal","\u00e5r":2019,"befolkning":6418,"latitude":60.9664991704,"longitude":9.282677488,"fylke_navn_2019":"OPPLAND","fylke_navn_2020":"VIKEN"},{"kommunenummer":"0542","navn":"Nord-Aurdal","\u00e5r":2019,"befolkning":6418,"latitude":60.9664991704,"longitude":9.282677488,"fylke_navn_2019":"OPPLAND","fylke_navn_2020":"INNLANDET"},{"kommunenummer":"0543","navn":"Vestre Slidre","\u00e5r":2019,"befolkning":2135,"latitude":61.0344762647,"longitude":8.8851187233,"fylke_navn_2019":"OPPLAND","fylke_navn_2020":"VIKEN"},{"kommunenummer":"0543","navn":"Vestre Slidre","\u00e5r":2019,"befolkning":2135,"latitude":61.0344762647,"longitude":8.8851187233,"fylke_navn_2019":"OPPLAND","fylke_navn_2020":"INNLANDET"},{"kommunenummer":"0544","navn":"\u00d8ystre Slidre","\u00e5r":2019,"befolkning":3208,"latitude":61.2448932379,"longitude":9.0972642738,"fylke_navn_2019":"OPPLAND","fylke_navn_2020":"VIKEN"},{"kommunenummer":"0544","navn":"\u00d8ystre Slidre","\u00e5r":2019,"befolkning":3208,"latitude":61.2448932379,"longitude":9.0972642738,"fylke_navn_2019":"OPPLAND","fylke_navn_2020":"INNLANDET"},{"kommunenummer":"0545","navn":"Vang","\u00e5r":2019,"befolkning":1610,"latitude":61.2181270034,"longitude":8.4749460808,"fylke_navn_2019":"OPPLAND","fylke_navn_2020":"VIKEN"},{"kommunenummer":"0545","navn":"Vang","\u00e5r":2019,"befolkning":1610,"latitude":61.2181270034,"longitude":8.4749460808,"fylke_navn_2019":"OPPLAND","fylke_navn_2020":"INNLANDET"},{"kommunenummer":"0602","navn":"Drammen","\u00e5r":2019,"befolkning":68933,"latitude":59.7113306138,"longitude":10.1586226508,"fylke_navn_2019":"BUSKERUD","fylke_navn_2020":"VIKEN"},{"kommunenummer":"0604","navn":"Kongsberg","\u00e5r":2019,"befolkning":27481,"latitude":59.5784157648,"longitude":9.6674372333,"fylke_navn_2019":"BUSKERUD","fylke_navn_2020":"VIKEN"},{"kommunenummer":"0605","navn":"Ringerike","\u00e5r":2019,"befolkning":30442,"latitude":60.2958279005,"longitude":10.0857381535,"fylke_navn_2019":"BUSKERUD","fylke_navn_2020":"VIKEN"},{"kommunenummer":"0612","navn":"Hole","\u00e5r":2019,"befolkning":6845,"latitude":60.044715532,"longitude":10.2938129137,"fylke_navn_2019":"BUSKERUD","fylke_navn_2020":"VIKEN"},{"kommunenummer":"0615","navn":"Fl\u00e5","\u00e5r":2019,"befolkning":1052,"latitude":60.4162262433,"longitude":9.5022545157,"fylke_navn_2019":"BUSKERUD","fylke_navn_2020":"VIKEN"},{"kommunenummer":"0616","navn":"Nes","\u00e5r":2019,"befolkning":3315,"latitude":60.551698851,"longitude":9.0717676526,"fylke_navn_2019":"BUSKERUD","fylke_navn_2020":"VIKEN"},{"kommunenummer":"0617","navn":"Gol","\u00e5r":2019,"befolkning":4576,"latitude":60.7473345681,"longitude":8.9992060904,"fylke_navn_2019":"BUSKERUD","fylke_navn_2020":"VIKEN"},{"kommunenummer":"0618","navn":"Hemsedal","\u00e5r":2019,"befolkning":2481,"latitude":60.9109689117,"longitude":8.466754168,"fylke_navn_2019":"BUSKERUD","fylke_navn_2020":"VIKEN"},{"kommunenummer":"0619","navn":"\u00c5l","\u00e5r":2019,"befolkning":4671,"latitude":60.712083092,"longitude":8.3859901511,"fylke_navn_2019":"BUSKERUD","fylke_navn_2020":"VIKEN"},{"kommunenummer":"0620","navn":"Hol","\u00e5r":2019,"befolkning":4473,"latitude":60.5699326032,"longitude":8.0111576967,"fylke_navn_2019":"BUSKERUD","fylke_navn_2020":"VIKEN"},{"kommunenummer":"0621","navn":"Sigdal","\u00e5r":2019,"befolkning":3490,"latitude":60.1366985091,"longitude":9.454648689,"fylke_navn_2019":"BUSKERUD","fylke_navn_2020":"VIKEN"},{"kommunenummer":"0622","navn":"Kr\u00f8dsherad","\u00e5r":2019,"befolkning":2239,"latitude":60.1974893822,"longitude":9.6673923896,"fylke_navn_2019":"BUSKERUD","fylke_navn_2020":"VIKEN"},{"kommunenummer":"0623","navn":"Modum","\u00e5r":2019,"befolkning":13980,"latitude":59.9849609418,"longitude":9.9614758461,"fylke_navn_2019":"BUSKERUD","fylke_navn_2020":"VIKEN"},{"kommunenummer":"0624","navn":"\u00d8vre Eiker","\u00e5r":2019,"befolkning":19117,"latitude":59.7534911663,"longitude":9.8483860832,"fylke_navn_2019":"BUSKERUD","fylke_navn_2020":"VIKEN"},{"kommunenummer":"0625","navn":"Nedre Eiker","\u00e5r":2019,"befolkning":24963,"latitude":59.7621018142,"longitude":10.0389798265,"fylke_navn_2019":"BUSKERUD","fylke_navn_2020":"VIKEN"},{"kommunenummer":"0626","navn":"Lier","\u00e5r":2019,"befolkning":26373,"latitude":59.8626403723,"longitude":10.2331794776,"fylke_navn_2019":"BUSKERUD","fylke_navn_2020":"VIKEN"},{"kommunenummer":"0627","navn":"R\u00f8yken","\u00e5r":2019,"befolkning":22635,"latitude":59.7367175701,"longitude":10.4219315969,"fylke_navn_2019":"BUSKERUD","fylke_navn_2020":"VIKEN"},{"kommunenummer":"0628","navn":"Hurum","\u00e5r":2019,"befolkning":9521,"latitude":59.6031946026,"longitude":10.5137592985,"fylke_navn_2019":"BUSKERUD","fylke_navn_2020":"VIKEN"},{"kommunenummer":"0631","navn":"Flesberg","\u00e5r":2019,"befolkning":2694,"latitude":59.8475624,"longitude":9.4930567638,"fylke_navn_2019":"BUSKERUD","fylke_navn_2020":"VIKEN"},{"kommunenummer":"0632","navn":"Rollag","\u00e5r":2019,"befolkning":1419,"latitude":60.0108559245,"longitude":9.2177442192,"fylke_navn_2019":"BUSKERUD","fylke_navn_2020":"VIKEN"},{"kommunenummer":"0633","navn":"Nore og Uvdal","\u00e5r":2019,"befolkning":2448,"latitude":60.2764844919,"longitude":8.4487716695,"fylke_navn_2019":"BUSKERUD","fylke_navn_2020":"VIKEN"},{"kommunenummer":"0701","navn":"Horten","\u00e5r":2019,"befolkning":27334,"latitude":59.4021217043,"longitude":10.4175502845,"fylke_navn_2019":"VESTFOLD","fylke_navn_2020":"VIKEN"},{"kommunenummer":"0701","navn":"Horten","\u00e5r":2019,"befolkning":27334,"latitude":59.4021217043,"longitude":10.4175502845,"fylke_navn_2019":"VESTFOLD","fylke_navn_2020":"VESTFOLD OG TELEMARK"},{"kommunenummer":"0704","navn":"T\u00f8nsberg","\u00e5r":2019,"befolkning":45976,"latitude":59.2991771358,"longitude":10.4061363786,"fylke_navn_2019":"VESTFOLD","fylke_navn_2020":"VIKEN"},{"kommunenummer":"0704","navn":"T\u00f8nsberg","\u00e5r":2019,"befolkning":45976,"latitude":59.2991771358,"longitude":10.4061363786,"fylke_navn_2019":"VESTFOLD","fylke_navn_2020":"VESTFOLD OG TELEMARK"},{"kommunenummer":"0710","navn":"Sandefjord","\u00e5r":2019,"befolkning":63271,"latitude":59.2378237339,"longitude":10.179560057,"fylke_navn_2019":"VESTFOLD","fylke_navn_2020":"VIKEN"},{"kommunenummer":"0710","navn":"Sandefjord","\u00e5r":2019,"befolkning":63271,"latitude":59.2378237339,"longitude":10.179560057,"fylke_navn_2019":"VESTFOLD","fylke_navn_2020":"VESTFOLD OG TELEMARK"},{"kommunenummer":"0711","navn":"Svelvik","\u00e5r":2019,"befolkning":6685,"latitude":59.6185125651,"longitude":10.3626902154,"fylke_navn_2019":"VESTFOLD","fylke_navn_2020":"VIKEN"},{"kommunenummer":"0711","navn":"Svelvik","\u00e5r":2019,"befolkning":6685,"latitude":59.6185125651,"longitude":10.3626902154,"fylke_navn_2019":"VESTFOLD","fylke_navn_2020":"VESTFOLD OG TELEMARK"},{"kommunenummer":"0712","navn":"Larvik","\u00e5r":2019,"befolkning":47107,"latitude":59.2121707483,"longitude":9.9599087276,"fylke_navn_2019":"VESTFOLD","fylke_navn_2020":"VIKEN"},{"kommunenummer":"0712","navn":"Larvik","\u00e5r":2019,"befolkning":47107,"latitude":59.2121707483,"longitude":9.9599087276,"fylke_navn_2019":"VESTFOLD","fylke_navn_2020":"VESTFOLD OG TELEMARK"},{"kommunenummer":"0713","navn":"Sande","\u00e5r":2019,"befolkning":9904,"latitude":59.6097647941,"longitude":10.221972998,"fylke_navn_2019":"VESTFOLD","fylke_navn_2020":"VIKEN"},{"kommunenummer":"0713","navn":"Sande","\u00e5r":2019,"befolkning":9904,"latitude":59.6097647941,"longitude":10.221972998,"fylke_navn_2019":"VESTFOLD","fylke_navn_2020":"VESTFOLD OG TELEMARK"},{"kommunenummer":"0715","navn":"Holmestrand","\u00e5r":2019,"befolkning":14371,"latitude":59.5365661525,"longitude":10.1115491458,"fylke_navn_2019":"VESTFOLD","fylke_navn_2020":"VIKEN"},{"kommunenummer":"0715","navn":"Holmestrand","\u00e5r":2019,"befolkning":14371,"latitude":59.5365661525,"longitude":10.1115491458,"fylke_navn_2019":"VESTFOLD","fylke_navn_2020":"VESTFOLD OG TELEMARK"},{"kommunenummer":"0716","navn":"Re","\u00e5r":2019,"befolkning":9730,"latitude":59.3980290812,"longitude":10.234017783,"fylke_navn_2019":"VESTFOLD","fylke_navn_2020":"VIKEN"},{"kommunenummer":"0716","navn":"Re","\u00e5r":2019,"befolkning":9730,"latitude":59.3980290812,"longitude":10.234017783,"fylke_navn_2019":"VESTFOLD","fylke_navn_2020":"VESTFOLD OG TELEMARK"},{"kommunenummer":"0729","navn":"F\u00e6rder","\u00e5r":2019,"befolkning":26700,"latitude":59.174194283,"longitude":10.4083431832,"fylke_navn_2019":"VESTFOLD","fylke_navn_2020":"VIKEN"},{"kommunenummer":"0729","navn":"F\u00e6rder","\u00e5r":2019,"befolkning":26700,"latitude":59.174194283,"longitude":10.4083431832,"fylke_navn_2019":"VESTFOLD","fylke_navn_2020":"VESTFOLD OG TELEMARK"},{"kommunenummer":"0805","navn":"Porsgrunn","\u00e5r":2019,"befolkning":36224,"latitude":59.1223511045,"longitude":9.7573647269,"fylke_navn_2019":"TELEMARK","fylke_navn_2020":"VESTFOLD OG TELEMARK"},{"kommunenummer":"0806","navn":"Skien","\u00e5r":2019,"befolkning":54645,"latitude":59.2545257698,"longitude":9.4851273306,"fylke_navn_2019":"TELEMARK","fylke_navn_2020":"VESTFOLD OG TELEMARK"},{"kommunenummer":"0807","navn":"Notodden","\u00e5r":2019,"befolkning":12682,"latitude":59.6623357665,"longitude":9.133478429,"fylke_navn_2019":"TELEMARK","fylke_navn_2020":"VESTFOLD OG TELEMARK"},{"kommunenummer":"0811","navn":"Siljan","\u00e5r":2019,"befolkning":2329,"latitude":59.3100456805,"longitude":9.7250931559,"fylke_navn_2019":"TELEMARK","fylke_navn_2020":"VESTFOLD OG TELEMARK"},{"kommunenummer":"0814","navn":"Bamble","\u00e5r":2019,"befolkning":14089,"latitude":59.0132899378,"longitude":9.5311259642,"fylke_navn_2019":"TELEMARK","fylke_navn_2020":"VESTFOLD OG TELEMARK"},{"kommunenummer":"0815","navn":"Krager\u00f8","\u00e5r":2019,"befolkning":10406,"latitude":58.8818821703,"longitude":9.3215680897,"fylke_navn_2019":"TELEMARK","fylke_navn_2020":"VESTFOLD OG TELEMARK"},{"kommunenummer":"0817","navn":"Drangedal","\u00e5r":2019,"befolkning":4080,"latitude":59.1002660036,"longitude":8.97760752,"fylke_navn_2019":"TELEMARK","fylke_navn_2020":"VESTFOLD OG TELEMARK"},{"kommunenummer":"0819","navn":"Nome","\u00e5r":2019,"befolkning":6538,"latitude":59.2753163716,"longitude":9.1243521954,"fylke_navn_2019":"TELEMARK","fylke_navn_2020":"VESTFOLD OG TELEMARK"},{"kommunenummer":"0821","navn":"B\u00f8","\u00e5r":2019,"befolkning":6630,"latitude":59.4415928673,"longitude":9.0073697352,"fylke_navn_2019":"TELEMARK","fylke_navn_2020":"VESTFOLD OG TELEMARK"},{"kommunenummer":"0822","navn":"Sauherad","\u00e5r":2019,"befolkning":4293,"latitude":59.4368783433,"longitude":9.2965096433,"fylke_navn_2019":"TELEMARK","fylke_navn_2020":"VESTFOLD OG TELEMARK"},{"kommunenummer":"0826","navn":"Tinn","\u00e5r":2019,"befolkning":5780,"latitude":59.997190684,"longitude":8.5634870557,"fylke_navn_2019":"TELEMARK","fylke_navn_2020":"VESTFOLD OG TELEMARK"},{"kommunenummer":"0827","navn":"Hjartdal","\u00e5r":2019,"befolkning":1572,"latitude":59.700712882,"longitude":8.7064923461,"fylke_navn_2019":"TELEMARK","fylke_navn_2020":"VESTFOLD OG TELEMARK"},{"kommunenummer":"0828","navn":"Seljord","\u00e5r":2019,"befolkning":2934,"latitude":59.565605929,"longitude":8.5341171513,"fylke_navn_2019":"TELEMARK","fylke_navn_2020":"VESTFOLD OG TELEMARK"},{"kommunenummer":"0829","navn":"Kviteseid","\u00e5r":2019,"befolkning":2403,"latitude":59.369866108,"longitude":8.4914349509,"fylke_navn_2019":"TELEMARK","fylke_navn_2020":"VESTFOLD OG TELEMARK"},{"kommunenummer":"0830","navn":"Nissedal","\u00e5r":2019,"befolkning":1476,"latitude":59.0599605773,"longitude":8.5416099461,"fylke_navn_2019":"TELEMARK","fylke_navn_2020":"VESTFOLD OG TELEMARK"},{"kommunenummer":"0831","navn":"Fyresdal","\u00e5r":2019,"befolkning":1286,"latitude":59.1611081772,"longitude":8.0559170539,"fylke_navn_2019":"TELEMARK","fylke_navn_2020":"VESTFOLD OG TELEMARK"},{"kommunenummer":"0833","navn":"Tokke","\u00e5r":2019,"befolkning":2228,"latitude":59.4622026484,"longitude":7.9113852485,"fylke_navn_2019":"TELEMARK","fylke_navn_2020":"VESTFOLD OG TELEMARK"},{"kommunenummer":"0834","navn":"Vinje","\u00e5r":2019,"befolkning":3723,"latitude":59.8221680282,"longitude":7.7290493,"fylke_navn_2019":"TELEMARK","fylke_navn_2020":"VESTFOLD OG TELEMARK"},{"kommunenummer":"0901","navn":"Ris\u00f8r","\u00e5r":2019,"befolkning":6848,"latitude":58.7422489585,"longitude":9.1514847477,"fylke_navn_2019":"AUST-AGDER","fylke_navn_2020":"AGDER"},{"kommunenummer":"0904","navn":"Grimstad","\u00e5r":2019,"befolkning":23246,"latitude":58.3760314755,"longitude":8.4878537766,"fylke_navn_2019":"AUST-AGDER","fylke_navn_2020":"AGDER"},{"kommunenummer":"0906","navn":"Arendal","\u00e5r":2019,"befolkning":44785,"latitude":58.489489855,"longitude":8.7567653576,"fylke_navn_2019":"AUST-AGDER","fylke_navn_2020":"AGDER"},{"kommunenummer":"0911","navn":"Gjerstad","\u00e5r":2019,"befolkning":2454,"latitude":58.8889526663,"longitude":8.9785201958,"fylke_navn_2019":"AUST-AGDER","fylke_navn_2020":"AGDER"},{"kommunenummer":"0912","navn":"Veg\u00e5rshei","\u00e5r":2019,"befolkning":2093,"latitude":58.7588653808,"longitude":8.8243839917,"fylke_navn_2019":"AUST-AGDER","fylke_navn_2020":"AGDER"},{"kommunenummer":"0914","navn":"Tvedestrand","\u00e5r":2019,"befolkning":6069,"latitude":58.6353711906,"longitude":8.9319459786,"fylke_navn_2019":"AUST-AGDER","fylke_navn_2020":"AGDER"},{"kommunenummer":"0919","navn":"Froland","\u00e5r":2019,"befolkning":5845,"latitude":58.5979289211,"longitude":8.4161267022,"fylke_navn_2019":"AUST-AGDER","fylke_navn_2020":"AGDER"},{"kommunenummer":"0926","navn":"Lillesand","\u00e5r":2019,"befolkning":10990,"latitude":58.2391931233,"longitude":8.2980388262,"fylke_navn_2019":"AUST-AGDER","fylke_navn_2020":"AGDER"},{"kommunenummer":"0928","navn":"Birkenes","\u00e5r":2019,"befolkning":5212,"latitude":58.4480296551,"longitude":8.1955587468,"fylke_navn_2019":"AUST-AGDER","fylke_navn_2020":"AGDER"},{"kommunenummer":"0929","navn":"\u00c5mli","\u00e5r":2019,"befolkning":1848,"latitude":58.8042952875,"longitude":8.339793406,"fylke_navn_2019":"AUST-AGDER","fylke_navn_2020":"AGDER"},{"kommunenummer":"0935","navn":"Iveland","\u00e5r":2019,"befolkning":1326,"latitude":58.4371266003,"longitude":7.9429399997,"fylke_navn_2019":"AUST-AGDER","fylke_navn_2020":"AGDER"},{"kommunenummer":"0937","navn":"Evje og Hornnes","\u00e5r":2019,"befolkning":3638,"latitude":58.5810083394,"longitude":7.7648862787,"fylke_navn_2019":"AUST-AGDER","fylke_navn_2020":"AGDER"},{"kommunenummer":"0938","navn":"Bygland","\u00e5r":2019,"befolkning":1192,"latitude":58.884297667,"longitude":7.6582827064,"fylke_navn_2019":"AUST-AGDER","fylke_navn_2020":"AGDER"},{"kommunenummer":"0940","navn":"Valle","\u00e5r":2019,"befolkning":1156,"latitude":59.1647983656,"longitude":7.4316714681,"fylke_navn_2019":"AUST-AGDER","fylke_navn_2020":"AGDER"},{"kommunenummer":"0941","navn":"Bykle","\u00e5r":2019,"befolkning":953,"latitude":59.438057218,"longitude":7.2043725435,"fylke_navn_2019":"AUST-AGDER","fylke_navn_2020":"AGDER"},{"kommunenummer":"1001","navn":"Kristiansand","\u00e5r":2019,"befolkning":92282,"latitude":58.1928855055,"longitude":8.032095035,"fylke_navn_2019":"VEST-AGDER","fylke_navn_2020":"AGDER"},{"kommunenummer":"1002","navn":"Mandal","\u00e5r":2019,"befolkning":15659,"latitude":58.0676447452,"longitude":7.5138671468,"fylke_navn_2019":"VEST-AGDER","fylke_navn_2020":"AGDER"},{"kommunenummer":"1003","navn":"Farsund","\u00e5r":2019,"befolkning":9695,"latitude":58.1362329044,"longitude":6.7717498171,"fylke_navn_2019":"VEST-AGDER","fylke_navn_2020":"AGDER"},{"kommunenummer":"1004","navn":"Flekkefjord","\u00e5r":2019,"befolkning":9066,"latitude":58.3754659607,"longitude":6.6955576109,"fylke_navn_2019":"VEST-AGDER","fylke_navn_2020":"AGDER"},{"kommunenummer":"1014","navn":"Vennesla","\u00e5r":2019,"befolkning":14630,"latitude":58.3312383445,"longitude":7.8295511222,"fylke_navn_2019":"VEST-AGDER","fylke_navn_2020":"AGDER"},{"kommunenummer":"1017","navn":"Songdalen","\u00e5r":2019,"befolkning":6706,"latitude":58.2365435828,"longitude":7.7205493256,"fylke_navn_2019":"VEST-AGDER","fylke_navn_2020":"AGDER"},{"kommunenummer":"1018","navn":"S\u00f8gne","\u00e5r":2019,"befolkning":11403,"latitude":58.1040917062,"longitude":7.7406220354,"fylke_navn_2019":"VEST-AGDER","fylke_navn_2020":"AGDER"},{"kommunenummer":"1021","navn":"Marnardal","\u00e5r":2019,"befolkning":2297,"latitude":58.2907994189,"longitude":7.5455672002,"fylke_navn_2019":"VEST-AGDER","fylke_navn_2020":"AGDER"},{"kommunenummer":"1026","navn":"\u00c5seral","\u00e5r":2019,"befolkning":939,"latitude":58.6997909007,"longitude":7.3999033862,"fylke_navn_2019":"VEST-AGDER","fylke_navn_2020":"AGDER"},{"kommunenummer":"1027","navn":"Audnedal","\u00e5r":2019,"befolkning":1780,"latitude":58.3717776259,"longitude":7.3821733455,"fylke_navn_2019":"VEST-AGDER","fylke_navn_2020":"AGDER"},{"kommunenummer":"1029","navn":"Lindesnes","\u00e5r":2019,"befolkning":4953,"latitude":58.1227914566,"longitude":7.292250423,"fylke_navn_2019":"VEST-AGDER","fylke_navn_2020":"AGDER"},{"kommunenummer":"1032","navn":"Lyngdal","\u00e5r":2019,"befolkning":8609,"latitude":58.1808344295,"longitude":7.0917315699,"fylke_navn_2019":"VEST-AGDER","fylke_navn_2020":"AGDER"},{"kommunenummer":"1034","navn":"H\u00e6gebostad","\u00e5r":2019,"befolkning":1683,"latitude":58.4720184332,"longitude":7.1987437496,"fylke_navn_2019":"VEST-AGDER","fylke_navn_2020":"AGDER"},{"kommunenummer":"1037","navn":"Kvinesdal","\u00e5r":2019,"befolkning":6048,"latitude":58.5147570945,"longitude":6.9792384663,"fylke_navn_2019":"VEST-AGDER","fylke_navn_2020":"AGDER"},{"kommunenummer":"1046","navn":"Sirdal","\u00e5r":2019,"befolkning":1839,"latitude":58.8664062454,"longitude":6.8398840973,"fylke_navn_2019":"VEST-AGDER","fylke_navn_2020":"AGDER"},{"kommunenummer":"1101","navn":"Eigersund","\u00e5r":2019,"befolkning":14830,"latitude":58.501573911,"longitude":6.1409475884,"fylke_navn_2019":"ROGALAND","fylke_navn_2020":"ROGALAND"},{"kommunenummer":"1102","navn":"Sandnes","\u00e5r":2019,"befolkning":77246,"latitude":58.8635770979,"longitude":5.8555080338,"fylke_navn_2019":"ROGALAND","fylke_navn_2020":"ROGALAND"},{"kommunenummer":"1103","navn":"Stavanger","\u00e5r":2019,"befolkning":134037,"latitude":58.9481141885,"longitude":5.6972463709,"fylke_navn_2019":"ROGALAND","fylke_navn_2020":"ROGALAND"},{"kommunenummer":"1106","navn":"Haugesund","\u00e5r":2019,"befolkning":37250,"latitude":59.4478545341,"longitude":5.3029265328,"fylke_navn_2019":"ROGALAND","fylke_navn_2020":"ROGALAND"},{"kommunenummer":"1111","navn":"Sokndal","\u00e5r":2019,"befolkning":3305,"latitude":58.3758055739,"longitude":6.3369969826,"fylke_navn_2019":"ROGALAND","fylke_navn_2020":"ROGALAND"},{"kommunenummer":"1112","navn":"Lund","\u00e5r":2019,"befolkning":3213,"latitude":58.4899042842,"longitude":6.4708840561,"fylke_navn_2019":"ROGALAND","fylke_navn_2020":"ROGALAND"},{"kommunenummer":"1114","navn":"Bjerkreim","\u00e5r":2019,"befolkning":2807,"latitude":58.6632307849,"longitude":6.2012549247,"fylke_navn_2019":"ROGALAND","fylke_navn_2020":"ROGALAND"},{"kommunenummer":"1119","navn":"H\u00e5","\u00e5r":2019,"befolkning":18814,"latitude":58.5997126238,"longitude":5.7376508201,"fylke_navn_2019":"ROGALAND","fylke_navn_2020":"ROGALAND"},{"kommunenummer":"1120","navn":"Klepp","\u00e5r":2019,"befolkning":19354,"latitude":58.7651194926,"longitude":5.5986501467,"fylke_navn_2019":"ROGALAND","fylke_navn_2020":"ROGALAND"},{"kommunenummer":"1121","navn":"Time","\u00e5r":2019,"befolkning":18795,"latitude":58.7086662805,"longitude":5.7709996303,"fylke_navn_2019":"ROGALAND","fylke_navn_2020":"ROGALAND"},{"kommunenummer":"1122","navn":"Gjesdal","\u00e5r":2019,"befolkning":11899,"latitude":58.8130562072,"longitude":6.2522041207,"fylke_navn_2019":"ROGALAND","fylke_navn_2020":"ROGALAND"},{"kommunenummer":"1124","navn":"Sola","\u00e5r":2019,"befolkning":26582,"latitude":58.8861713811,"longitude":5.6191455825,"fylke_navn_2019":"ROGALAND","fylke_navn_2020":"ROGALAND"},{"kommunenummer":"1127","navn":"Randaberg","\u00e5r":2019,"befolkning":11053,"latitude":58.9999272133,"longitude":5.6141047436,"fylke_navn_2019":"ROGALAND","fylke_navn_2020":"ROGALAND"},{"kommunenummer":"1129","navn":"Forsand","\u00e5r":2019,"befolkning":1193,"latitude":59.0218856016,"longitude":6.4822006213,"fylke_navn_2019":"ROGALAND","fylke_navn_2020":"ROGALAND"},{"kommunenummer":"1130","navn":"Strand","\u00e5r":2019,"befolkning":12720,"latitude":59.0534951774,"longitude":6.0604139444,"fylke_navn_2019":"ROGALAND","fylke_navn_2020":"ROGALAND"},{"kommunenummer":"1133","navn":"Hjelmeland","\u00e5r":2019,"befolkning":2684,"latitude":59.2231754386,"longitude":6.4455195596,"fylke_navn_2019":"ROGALAND","fylke_navn_2020":"ROGALAND"},{"kommunenummer":"1134","navn":"Suldal","\u00e5r":2019,"befolkning":3794,"latitude":59.5184305997,"longitude":6.6096198428,"fylke_navn_2019":"ROGALAND","fylke_navn_2020":"ROGALAND"},{"kommunenummer":"1135","navn":"Sauda","\u00e5r":2019,"befolkning":4597,"latitude":59.7031699306,"longitude":6.4509044278,"fylke_navn_2019":"ROGALAND","fylke_navn_2020":"ROGALAND"},{"kommunenummer":"1141","navn":"Finn\u00f8y","\u00e5r":2019,"befolkning":3150,"latitude":59.2113439488,"longitude":5.9215529921,"fylke_navn_2019":"ROGALAND","fylke_navn_2020":"ROGALAND"},{"kommunenummer":"1142","navn":"Rennes\u00f8y","\u00e5r":2019,"befolkning":4847,"latitude":59.1006609657,"longitude":5.689652765,"fylke_navn_2019":"ROGALAND","fylke_navn_2020":"ROGALAND"},{"kommunenummer":"1144","navn":null,"\u00e5r":2019,"befolkning":516,"latitude":null,"longitude":null,"fylke_navn_2019":null,"fylke_navn_2020":null},{"kommunenummer":"1145","navn":"Bokn","\u00e5r":2019,"befolkning":840,"latitude":59.2151328442,"longitude":5.4371398882,"fylke_navn_2019":"ROGALAND","fylke_navn_2020":"ROGALAND"},{"kommunenummer":"1146","navn":"Tysv\u00e6r","\u00e5r":2019,"befolkning":11028,"latitude":59.3800078113,"longitude":5.5894759607,"fylke_navn_2019":"ROGALAND","fylke_navn_2020":"ROGALAND"},{"kommunenummer":"1149","navn":"Karm\u00f8y","\u00e5r":2019,"befolkning":42161,"latitude":59.2723070085,"longitude":5.2687401556,"fylke_navn_2019":"ROGALAND","fylke_navn_2020":"ROGALAND"},{"kommunenummer":"1151","navn":"Utsira","\u00e5r":2019,"befolkning":196,"latitude":59.3071692078,"longitude":4.8862480401,"fylke_navn_2019":"ROGALAND","fylke_navn_2020":"ROGALAND"},{"kommunenummer":"1160","navn":"Vindafjord","\u00e5r":2019,"befolkning":8743,"latitude":59.5466868723,"longitude":5.7987433649,"fylke_navn_2019":"ROGALAND","fylke_navn_2020":"ROGALAND"},{"kommunenummer":"1201","navn":"Bergen","\u00e5r":2019,"befolkning":281190,"latitude":60.3641180504,"longitude":5.3925657328,"fylke_navn_2019":"HORDALAND","fylke_navn_2020":"VESTLAND"},{"kommunenummer":"1211","navn":"Etne","\u00e5r":2019,"befolkning":4077,"latitude":59.7746655265,"longitude":6.1915584231,"fylke_navn_2019":"HORDALAND","fylke_navn_2020":"VESTLAND"},{"kommunenummer":"1216","navn":"Sveio","\u00e5r":2019,"befolkning":5721,"latitude":59.5822472275,"longitude":5.4073436615,"fylke_navn_2019":"HORDALAND","fylke_navn_2020":"VESTLAND"},{"kommunenummer":"1219","navn":"B\u00f8mlo","\u00e5r":2019,"befolkning":11960,"latitude":59.7464291387,"longitude":5.2167811835,"fylke_navn_2019":"HORDALAND","fylke_navn_2020":"VESTLAND"},{"kommunenummer":"1221","navn":"Stord","\u00e5r":2019,"befolkning":18699,"latitude":59.8247536853,"longitude":5.4661167799,"fylke_navn_2019":"HORDALAND","fylke_navn_2020":"VESTLAND"},{"kommunenummer":"1222","navn":"Fitjar","\u00e5r":2019,"befolkning":3201,"latitude":59.8984197918,"longitude":5.3598015513,"fylke_navn_2019":"HORDALAND","fylke_navn_2020":"VESTLAND"},{"kommunenummer":"1223","navn":"Tysnes","\u00e5r":2019,"befolkning":2846,"latitude":59.9969930879,"longitude":5.5452008432,"fylke_navn_2019":"HORDALAND","fylke_navn_2020":"VESTLAND"},{"kommunenummer":"1224","navn":"Kvinnherad","\u00e5r":2019,"befolkning":13137,"latitude":59.9758618282,"longitude":6.0739577233,"fylke_navn_2019":"HORDALAND","fylke_navn_2020":"VESTLAND"},{"kommunenummer":"1227","navn":"Jondal","\u00e5r":2019,"befolkning":1087,"latitude":60.2506346726,"longitude":6.306582306,"fylke_navn_2019":"HORDALAND","fylke_navn_2020":"VESTLAND"},{"kommunenummer":"1228","navn":"Odda","\u00e5r":2019,"befolkning":6745,"latitude":59.9575749806,"longitude":6.8008090378,"fylke_navn_2019":"HORDALAND","fylke_navn_2020":"VESTLAND"},{"kommunenummer":"1231","navn":"Ullensvang","\u00e5r":2019,"befolkning":3320,"latitude":60.2370989708,"longitude":6.917170661,"fylke_navn_2019":"HORDALAND","fylke_navn_2020":"VESTLAND"},{"kommunenummer":"1232","navn":"Eidfjord","\u00e5r":2019,"befolkning":906,"latitude":60.3679949919,"longitude":7.3610653664,"fylke_navn_2019":"HORDALAND","fylke_navn_2020":"VESTLAND"},{"kommunenummer":"1233","navn":"Ulvik","\u00e5r":2019,"befolkning":1093,"latitude":60.6098830537,"longitude":7.1837459753,"fylke_navn_2019":"HORDALAND","fylke_navn_2020":"VESTLAND"},{"kommunenummer":"1234","navn":"Granvin","\u00e5r":2019,"befolkning":937,"latitude":60.5500673282,"longitude":6.6979522626,"fylke_navn_2019":"HORDALAND","fylke_navn_2020":"VESTLAND"},{"kommunenummer":"1235","navn":"Voss","\u00e5r":2019,"befolkning":14606,"latitude":60.7061745974,"longitude":6.4395074772,"fylke_navn_2019":"HORDALAND","fylke_navn_2020":"VESTLAND"},{"kommunenummer":"1238","navn":"Kvam","\u00e5r":2019,"befolkning":8441,"latitude":60.3866518477,"longitude":6.1213748401,"fylke_navn_2019":"HORDALAND","fylke_navn_2020":"VESTLAND"},{"kommunenummer":"1241","navn":"Fusa","\u00e5r":2019,"befolkning":3861,"latitude":60.2157778927,"longitude":5.7807112126,"fylke_navn_2019":"HORDALAND","fylke_navn_2020":"VESTLAND"},{"kommunenummer":"1242","navn":"Samnanger","\u00e5r":2019,"befolkning":2465,"latitude":60.3998446365,"longitude":5.7971813226,"fylke_navn_2019":"HORDALAND","fylke_navn_2020":"VESTLAND"},{"kommunenummer":"1243","navn":"Os","\u00e5r":2019,"befolkning":20804,"latitude":60.2235288225,"longitude":5.4690253669,"fylke_navn_2019":"HORDALAND","fylke_navn_2020":"VESTLAND"},{"kommunenummer":"1244","navn":"Austevoll","\u00e5r":2019,"befolkning":5212,"latitude":60.0403884087,"longitude":5.1972437135,"fylke_navn_2019":"HORDALAND","fylke_navn_2020":"VESTLAND"},{"kommunenummer":"1245","navn":"Sund","\u00e5r":2019,"befolkning":7062,"latitude":60.2283148391,"longitude":5.0645816824,"fylke_navn_2019":"HORDALAND","fylke_navn_2020":"VESTLAND"},{"kommunenummer":"1246","navn":"Fjell","\u00e5r":2019,"befolkning":26166,"latitude":60.349795601,"longitude":5.0550624045,"fylke_navn_2019":"HORDALAND","fylke_navn_2020":"VESTLAND"},{"kommunenummer":"1247","navn":"Ask\u00f8y","\u00e5r":2019,"befolkning":29275,"latitude":60.4689912021,"longitude":5.1414223479,"fylke_navn_2019":"HORDALAND","fylke_navn_2020":"VESTLAND"},{"kommunenummer":"1251","navn":"Vaksdal","\u00e5r":2019,"befolkning":4045,"latitude":60.67910766,"longitude":5.9169430096,"fylke_navn_2019":"HORDALAND","fylke_navn_2020":"VESTLAND"},{"kommunenummer":"1252","navn":"Modalen","\u00e5r":2019,"befolkning":380,"latitude":60.8905571745,"longitude":5.9345247655,"fylke_navn_2019":"HORDALAND","fylke_navn_2020":"VESTLAND"},{"kommunenummer":"1253","navn":"Oster\u00f8y","\u00e5r":2019,"befolkning":8120,"latitude":60.5358746895,"longitude":5.5531131469,"fylke_navn_2019":"HORDALAND","fylke_navn_2020":"VESTLAND"},{"kommunenummer":"1256","navn":"Meland","\u00e5r":2019,"befolkning":8187,"latitude":60.5626600283,"longitude":5.1131160638,"fylke_navn_2019":"HORDALAND","fylke_navn_2020":"VESTLAND"},{"kommunenummer":"1259","navn":"\u00d8ygarden","\u00e5r":2019,"befolkning":4889,"latitude":60.5743019505,"longitude":4.8570850256,"fylke_navn_2019":"HORDALAND","fylke_navn_2020":"VESTLAND"},{"kommunenummer":"1260","navn":"Rad\u00f8y","\u00e5r":2019,"befolkning":5091,"latitude":60.6678661674,"longitude":5.0326021724,"fylke_navn_2019":"HORDALAND","fylke_navn_2020":"VESTLAND"},{"kommunenummer":"1263","navn":"Lind\u00e5s","\u00e5r":2019,"befolkning":15812,"latitude":60.6933515686,"longitude":5.3854777384,"fylke_navn_2019":"HORDALAND","fylke_navn_2020":"VESTLAND"},{"kommunenummer":"1264","navn":"Austrheim","\u00e5r":2019,"befolkning":2887,"latitude":60.7805761817,"longitude":4.9432029097,"fylke_navn_2019":"HORDALAND","fylke_navn_2020":"VESTLAND"},{"kommunenummer":"1265","navn":"Fedje","\u00e5r":2019,"befolkning":562,"latitude":60.7682111487,"longitude":4.7209253375,"fylke_navn_2019":"HORDALAND","fylke_navn_2020":"VESTLAND"},{"kommunenummer":"1266","navn":"Masfjorden","\u00e5r":2019,"befolkning":1711,"latitude":60.8657695044,"longitude":5.4949778775,"fylke_navn_2019":"HORDALAND","fylke_navn_2020":"VESTLAND"},{"kommunenummer":"1401","navn":"Flora","\u00e5r":2019,"befolkning":11852,"latitude":61.6216583614,"longitude":5.3728661803,"fylke_navn_2019":"SOGN OG FJORDANE","fylke_navn_2020":"M\u00d8RE OG ROMSDAL"},{"kommunenummer":"1401","navn":"Flora","\u00e5r":2019,"befolkning":11852,"latitude":61.6216583614,"longitude":5.3728661803,"fylke_navn_2019":"SOGN OG FJORDANE","fylke_navn_2020":"VESTLAND"},{"kommunenummer":"1411","navn":"Gulen","\u00e5r":2019,"befolkning":2322,"latitude":60.9713094544,"longitude":5.2358046748,"fylke_navn_2019":"SOGN OG FJORDANE","fylke_navn_2020":"M\u00d8RE OG ROMSDAL"},{"kommunenummer":"1411","navn":"Gulen","\u00e5r":2019,"befolkning":2322,"latitude":60.9713094544,"longitude":5.2358046748,"fylke_navn_2019":"SOGN OG FJORDANE","fylke_navn_2020":"VESTLAND"},{"kommunenummer":"1412","navn":"Solund","\u00e5r":2019,"befolkning":820,"latitude":61.1087483151,"longitude":4.877182988,"fylke_navn_2019":"SOGN OG FJORDANE","fylke_navn_2020":"M\u00d8RE OG ROMSDAL"},{"kommunenummer":"1412","navn":"Solund","\u00e5r":2019,"befolkning":820,"latitude":61.1087483151,"longitude":4.877182988,"fylke_navn_2019":"SOGN OG FJORDANE","fylke_navn_2020":"VESTLAND"},{"kommunenummer":"1413","navn":"Hyllestad","\u00e5r":2019,"befolkning":1366,"latitude":61.1889915239,"longitude":5.2699349675,"fylke_navn_2019":"SOGN OG FJORDANE","fylke_navn_2020":"M\u00d8RE OG ROMSDAL"},{"kommunenummer":"1413","navn":"Hyllestad","\u00e5r":2019,"befolkning":1366,"latitude":61.1889915239,"longitude":5.2699349675,"fylke_navn_2019":"SOGN OG FJORDANE","fylke_navn_2020":"VESTLAND"},{"kommunenummer":"1416","navn":"H\u00f8yanger","\u00e5r":2019,"befolkning":4091,"latitude":61.1350376656,"longitude":5.8870211122,"fylke_navn_2019":"SOGN OG FJORDANE","fylke_navn_2020":"M\u00d8RE OG ROMSDAL"},{"kommunenummer":"1416","navn":"H\u00f8yanger","\u00e5r":2019,"befolkning":4091,"latitude":61.1350376656,"longitude":5.8870211122,"fylke_navn_2019":"SOGN OG FJORDANE","fylke_navn_2020":"VESTLAND"},{"kommunenummer":"1417","navn":"Vik","\u00e5r":2019,"befolkning":2672,"latitude":61.0213053473,"longitude":6.5435368805,"fylke_navn_2019":"SOGN OG FJORDANE","fylke_navn_2020":"M\u00d8RE OG ROMSDAL"},{"kommunenummer":"1417","navn":"Vik","\u00e5r":2019,"befolkning":2672,"latitude":61.0213053473,"longitude":6.5435368805,"fylke_navn_2019":"SOGN OG FJORDANE","fylke_navn_2020":"VESTLAND"},{"kommunenummer":"1418","navn":"Balestrand","\u00e5r":2019,"befolkning":1279,"latitude":61.2463460817,"longitude":6.4390033406,"fylke_navn_2019":"SOGN OG FJORDANE","fylke_navn_2020":"M\u00d8RE OG ROMSDAL"},{"kommunenummer":"1418","navn":"Balestrand","\u00e5r":2019,"befolkning":1279,"latitude":61.2463460817,"longitude":6.4390033406,"fylke_navn_2019":"SOGN OG FJORDANE","fylke_navn_2020":"VESTLAND"},{"kommunenummer":"1419","navn":"Leikanger","\u00e5r":2019,"befolkning":2331,"latitude":61.2397222266,"longitude":6.7906544284,"fylke_navn_2019":"SOGN OG FJORDANE","fylke_navn_2020":"M\u00d8RE OG ROMSDAL"},{"kommunenummer":"1419","navn":"Leikanger","\u00e5r":2019,"befolkning":2331,"latitude":61.2397222266,"longitude":6.7906544284,"fylke_navn_2019":"SOGN OG FJORDANE","fylke_navn_2020":"VESTLAND"},{"kommunenummer":"1420","navn":"Sogndal","\u00e5r":2019,"befolkning":8191,"latitude":61.3181072762,"longitude":6.9265307134,"fylke_navn_2019":"SOGN OG FJORDANE","fylke_navn_2020":"M\u00d8RE OG ROMSDAL"},{"kommunenummer":"1420","navn":"Sogndal","\u00e5r":2019,"befolkning":8191,"latitude":61.3181072762,"longitude":6.9265307134,"fylke_navn_2019":"SOGN OG FJORDANE","fylke_navn_2020":"VESTLAND"},{"kommunenummer":"1421","navn":"Aurland","\u00e5r":2019,"befolkning":1764,"latitude":60.8577241517,"longitude":7.2392462128,"fylke_navn_2019":"SOGN OG FJORDANE","fylke_navn_2020":"M\u00d8RE OG ROMSDAL"},{"kommunenummer":"1421","navn":"Aurland","\u00e5r":2019,"befolkning":1764,"latitude":60.8577241517,"longitude":7.2392462128,"fylke_navn_2019":"SOGN OG FJORDANE","fylke_navn_2020":"VESTLAND"},{"kommunenummer":"1422","navn":"L\u00e6rdal","\u00e5r":2019,"befolkning":2151,"latitude":61.040740364,"longitude":7.7437316953,"fylke_navn_2019":"SOGN OG FJORDANE","fylke_navn_2020":"M\u00d8RE OG ROMSDAL"},{"kommunenummer":"1422","navn":"L\u00e6rdal","\u00e5r":2019,"befolkning":2151,"latitude":61.040740364,"longitude":7.7437316953,"fylke_navn_2019":"SOGN OG FJORDANE","fylke_navn_2020":"VESTLAND"},{"kommunenummer":"1424","navn":"\u00c5rdal","\u00e5r":2019,"befolkning":5245,"latitude":61.2927036387,"longitude":7.8151825189,"fylke_navn_2019":"SOGN OG FJORDANE","fylke_navn_2020":"M\u00d8RE OG ROMSDAL"},{"kommunenummer":"1424","navn":"\u00c5rdal","\u00e5r":2019,"befolkning":5245,"latitude":61.2927036387,"longitude":7.8151825189,"fylke_navn_2019":"SOGN OG FJORDANE","fylke_navn_2020":"VESTLAND"},{"kommunenummer":"1426","navn":"Luster","\u00e5r":2019,"befolkning":5195,"latitude":61.5410343718,"longitude":7.4451551502,"fylke_navn_2019":"SOGN OG FJORDANE","fylke_navn_2020":"M\u00d8RE OG ROMSDAL"},{"kommunenummer":"1426","navn":"Luster","\u00e5r":2019,"befolkning":5195,"latitude":61.5410343718,"longitude":7.4451551502,"fylke_navn_2019":"SOGN OG FJORDANE","fylke_navn_2020":"VESTLAND"},{"kommunenummer":"1428","navn":"Askvoll","\u00e5r":2019,"befolkning":3038,"latitude":61.39958896,"longitude":5.191682402,"fylke_navn_2019":"SOGN OG FJORDANE","fylke_navn_2020":"M\u00d8RE OG ROMSDAL"},{"kommunenummer":"1428","navn":"Askvoll","\u00e5r":2019,"befolkning":3038,"latitude":61.39958896,"longitude":5.191682402,"fylke_navn_2019":"SOGN OG FJORDANE","fylke_navn_2020":"VESTLAND"},{"kommunenummer":"1429","navn":"Fjaler","\u00e5r":2019,"befolkning":2770,"latitude":61.2828273665,"longitude":5.4263206795,"fylke_navn_2019":"SOGN OG FJORDANE","fylke_navn_2020":"M\u00d8RE OG ROMSDAL"},{"kommunenummer":"1429","navn":"Fjaler","\u00e5r":2019,"befolkning":2770,"latitude":61.2828273665,"longitude":5.4263206795,"fylke_navn_2019":"SOGN OG FJORDANE","fylke_navn_2020":"VESTLAND"},{"kommunenummer":"1430","navn":"Gaular","\u00e5r":2019,"befolkning":3027,"latitude":61.3410782043,"longitude":5.9203684403,"fylke_navn_2019":"SOGN OG FJORDANE","fylke_navn_2020":"M\u00d8RE OG ROMSDAL"},{"kommunenummer":"1430","navn":"Gaular","\u00e5r":2019,"befolkning":3027,"latitude":61.3410782043,"longitude":5.9203684403,"fylke_navn_2019":"SOGN OG FJORDANE","fylke_navn_2020":"VESTLAND"},{"kommunenummer":"1431","navn":"J\u00f8lster","\u00e5r":2019,"befolkning":3047,"latitude":61.5530340107,"longitude":6.4381918582,"fylke_navn_2019":"SOGN OG FJORDANE","fylke_navn_2020":"M\u00d8RE OG ROMSDAL"},{"kommunenummer":"1431","navn":"J\u00f8lster","\u00e5r":2019,"befolkning":3047,"latitude":61.5530340107,"longitude":6.4381918582,"fylke_navn_2019":"SOGN OG FJORDANE","fylke_navn_2020":"VESTLAND"},{"kommunenummer":"1432","navn":"F\u00f8rde","\u00e5r":2019,"befolkning":13092,"latitude":61.4451016983,"longitude":6.1114923942,"fylke_navn_2019":"SOGN OG FJORDANE","fylke_navn_2020":"M\u00d8RE OG ROMSDAL"},{"kommunenummer":"1432","navn":"F\u00f8rde","\u00e5r":2019,"befolkning":13092,"latitude":61.4451016983,"longitude":6.1114923942,"fylke_navn_2019":"SOGN OG FJORDANE","fylke_navn_2020":"VESTLAND"},{"kommunenummer":"1433","navn":"Naustdal","\u00e5r":2019,"befolkning":2793,"latitude":61.5594807347,"longitude":5.8408052191,"fylke_navn_2019":"SOGN OG FJORDANE","fylke_navn_2020":"M\u00d8RE OG ROMSDAL"},{"kommunenummer":"1433","navn":"Naustdal","\u00e5r":2019,"befolkning":2793,"latitude":61.5594807347,"longitude":5.8408052191,"fylke_navn_2019":"SOGN OG FJORDANE","fylke_navn_2020":"VESTLAND"},{"kommunenummer":"1438","navn":"Bremanger","\u00e5r":2019,"befolkning":3705,"latitude":61.8021484022,"longitude":5.3481391646,"fylke_navn_2019":"SOGN OG FJORDANE","fylke_navn_2020":"M\u00d8RE OG ROMSDAL"},{"kommunenummer":"1438","navn":"Bremanger","\u00e5r":2019,"befolkning":3705,"latitude":61.8021484022,"longitude":5.3481391646,"fylke_navn_2019":"SOGN OG FJORDANE","fylke_navn_2020":"VESTLAND"},{"kommunenummer":"1439","navn":"V\u00e5gs\u00f8y","\u00e5r":2019,"befolkning":5970,"latitude":61.955579164,"longitude":5.2193001641,"fylke_navn_2019":"SOGN OG FJORDANE","fylke_navn_2020":"M\u00d8RE OG ROMSDAL"},{"kommunenummer":"1439","navn":"V\u00e5gs\u00f8y","\u00e5r":2019,"befolkning":5970,"latitude":61.955579164,"longitude":5.2193001641,"fylke_navn_2019":"SOGN OG FJORDANE","fylke_navn_2020":"VESTLAND"},{"kommunenummer":"1441","navn":"Selje","\u00e5r":2019,"befolkning":2747,"latitude":62.0799865279,"longitude":5.2893592749,"fylke_navn_2019":"SOGN OG FJORDANE","fylke_navn_2020":"M\u00d8RE OG ROMSDAL"},{"kommunenummer":"1441","navn":"Selje","\u00e5r":2019,"befolkning":2747,"latitude":62.0799865279,"longitude":5.2893592749,"fylke_navn_2019":"SOGN OG FJORDANE","fylke_navn_2020":"VESTLAND"},{"kommunenummer":"1443","navn":"Eid","\u00e5r":2019,"befolkning":6151,"latitude":61.9308301067,"longitude":6.0276449597,"fylke_navn_2019":"SOGN OG FJORDANE","fylke_navn_2020":"M\u00d8RE OG ROMSDAL"},{"kommunenummer":"1443","navn":"Eid","\u00e5r":2019,"befolkning":6151,"latitude":61.9308301067,"longitude":6.0276449597,"fylke_navn_2019":"SOGN OG FJORDANE","fylke_navn_2020":"VESTLAND"},{"kommunenummer":"1444","navn":"Hornindal","\u00e5r":2019,"befolkning":1152,"latitude":61.9959958259,"longitude":6.5925944225,"fylke_navn_2019":"SOGN OG FJORDANE","fylke_navn_2020":"M\u00d8RE OG ROMSDAL"},{"kommunenummer":"1444","navn":"Hornindal","\u00e5r":2019,"befolkning":1152,"latitude":61.9959958259,"longitude":6.5925944225,"fylke_navn_2019":"SOGN OG FJORDANE","fylke_navn_2020":"VESTLAND"},{"kommunenummer":"1445","navn":"Gloppen","\u00e5r":2019,"befolkning":5836,"latitude":61.7188912627,"longitude":6.1672448442,"fylke_navn_2019":"SOGN OG FJORDANE","fylke_navn_2020":"M\u00d8RE OG ROMSDAL"},{"kommunenummer":"1445","navn":"Gloppen","\u00e5r":2019,"befolkning":5836,"latitude":61.7188912627,"longitude":6.1672448442,"fylke_navn_2019":"SOGN OG FJORDANE","fylke_navn_2020":"VESTLAND"},{"kommunenummer":"1449","navn":"Stryn","\u00e5r":2019,"befolkning":7167,"latitude":61.8497884964,"longitude":6.9181117836,"fylke_navn_2019":"SOGN OG FJORDANE","fylke_navn_2020":"M\u00d8RE OG ROMSDAL"},{"kommunenummer":"1449","navn":"Stryn","\u00e5r":2019,"befolkning":7167,"latitude":61.8497884964,"longitude":6.9181117836,"fylke_navn_2019":"SOGN OG FJORDANE","fylke_navn_2020":"VESTLAND"},{"kommunenummer":"1502","navn":"Molde","\u00e5r":2019,"befolkning":27001,"latitude":62.7647144059,"longitude":7.4805789147,"fylke_navn_2019":"M\u00d8RE OG ROMSDAL","fylke_navn_2020":"M\u00d8RE OG ROMSDAL"},{"kommunenummer":"1502","navn":"Molde","\u00e5r":2019,"befolkning":27001,"latitude":62.7647144059,"longitude":7.4805789147,"fylke_navn_2019":"M\u00d8RE OG ROMSDAL","fylke_navn_2020":"TR\u00d8NDELAG"},{"kommunenummer":"1504","navn":"\u00c5lesund","\u00e5r":2019,"befolkning":47998,"latitude":62.4700335279,"longitude":6.3759369911,"fylke_navn_2019":"M\u00d8RE OG ROMSDAL","fylke_navn_2020":"M\u00d8RE OG ROMSDAL"},{"kommunenummer":"1504","navn":"\u00c5lesund","\u00e5r":2019,"befolkning":47998,"latitude":62.4700335279,"longitude":6.3759369911,"fylke_navn_2019":"M\u00d8RE OG ROMSDAL","fylke_navn_2020":"TR\u00d8NDELAG"},{"kommunenummer":"1505","navn":"Kristiansund","\u00e5r":2019,"befolkning":24274,"latitude":63.0778020027,"longitude":7.7982099238,"fylke_navn_2019":"M\u00d8RE OG ROMSDAL","fylke_navn_2020":"M\u00d8RE OG ROMSDAL"},{"kommunenummer":"1505","navn":"Kristiansund","\u00e5r":2019,"befolkning":24274,"latitude":63.0778020027,"longitude":7.7982099238,"fylke_navn_2019":"M\u00d8RE OG ROMSDAL","fylke_navn_2020":"TR\u00d8NDELAG"},{"kommunenummer":"1511","navn":"Vanylven","\u00e5r":2019,"befolkning":3163,"latitude":62.0849623063,"longitude":5.6471156192,"fylke_navn_2019":"M\u00d8RE OG ROMSDAL","fylke_navn_2020":"M\u00d8RE OG ROMSDAL"},{"kommunenummer":"1511","navn":"Vanylven","\u00e5r":2019,"befolkning":3163,"latitude":62.0849623063,"longitude":5.6471156192,"fylke_navn_2019":"M\u00d8RE OG ROMSDAL","fylke_navn_2020":"TR\u00d8NDELAG"},{"kommunenummer":"1514","navn":"Sande","\u00e5r":2019,"befolkning":2493,"latitude":62.2329101577,"longitude":5.5838745938,"fylke_navn_2019":"M\u00d8RE OG ROMSDAL","fylke_navn_2020":"M\u00d8RE OG ROMSDAL"},{"kommunenummer":"1514","navn":"Sande","\u00e5r":2019,"befolkning":2493,"latitude":62.2329101577,"longitude":5.5838745938,"fylke_navn_2019":"M\u00d8RE OG ROMSDAL","fylke_navn_2020":"TR\u00d8NDELAG"},{"kommunenummer":"1515","navn":"Her\u00f8y","\u00e5r":2019,"befolkning":8927,"latitude":62.2987368862,"longitude":5.6875410873,"fylke_navn_2019":"M\u00d8RE OG ROMSDAL","fylke_navn_2020":"M\u00d8RE OG ROMSDAL"},{"kommunenummer":"1515","navn":"Her\u00f8y","\u00e5r":2019,"befolkning":8927,"latitude":62.2987368862,"longitude":5.6875410873,"fylke_navn_2019":"M\u00d8RE OG ROMSDAL","fylke_navn_2020":"TR\u00d8NDELAG"},{"kommunenummer":"1516","navn":"Ulstein","\u00e5r":2019,"befolkning":8609,"latitude":62.3352636888,"longitude":5.8800784598,"fylke_navn_2019":"M\u00d8RE OG ROMSDAL","fylke_navn_2020":"M\u00d8RE OG ROMSDAL"},{"kommunenummer":"1516","navn":"Ulstein","\u00e5r":2019,"befolkning":8609,"latitude":62.3352636888,"longitude":5.8800784598,"fylke_navn_2019":"M\u00d8RE OG ROMSDAL","fylke_navn_2020":"TR\u00d8NDELAG"},{"kommunenummer":"1517","navn":"Hareid","\u00e5r":2019,"befolkning":5155,"latitude":62.3557864738,"longitude":5.983686346,"fylke_navn_2019":"M\u00d8RE OG ROMSDAL","fylke_navn_2020":"M\u00d8RE OG ROMSDAL"},{"kommunenummer":"1517","navn":"Hareid","\u00e5r":2019,"befolkning":5155,"latitude":62.3557864738,"longitude":5.983686346,"fylke_navn_2019":"M\u00d8RE OG ROMSDAL","fylke_navn_2020":"TR\u00d8NDELAG"},{"kommunenummer":"1519","navn":"Volda","\u00e5r":2019,"befolkning":9197,"latitude":62.0608172768,"longitude":6.0931171583,"fylke_navn_2019":"M\u00d8RE OG ROMSDAL","fylke_navn_2020":"M\u00d8RE OG ROMSDAL"},{"kommunenummer":"1519","navn":"Volda","\u00e5r":2019,"befolkning":9197,"latitude":62.0608172768,"longitude":6.0931171583,"fylke_navn_2019":"M\u00d8RE OG ROMSDAL","fylke_navn_2020":"TR\u00d8NDELAG"},{"kommunenummer":"1520","navn":"\u00d8rsta","\u00e5r":2019,"befolkning":10857,"latitude":62.2046121523,"longitude":6.3794903825,"fylke_navn_2019":"M\u00d8RE OG ROMSDAL","fylke_navn_2020":"M\u00d8RE OG ROMSDAL"},{"kommunenummer":"1520","navn":"\u00d8rsta","\u00e5r":2019,"befolkning":10857,"latitude":62.2046121523,"longitude":6.3794903825,"fylke_navn_2019":"M\u00d8RE OG ROMSDAL","fylke_navn_2020":"TR\u00d8NDELAG"},{"kommunenummer":"1523","navn":"\u00d8rskog","\u00e5r":2019,"befolkning":2250,"latitude":62.4817419311,"longitude":6.9241060915,"fylke_navn_2019":"M\u00d8RE OG ROMSDAL","fylke_navn_2020":"M\u00d8RE OG ROMSDAL"},{"kommunenummer":"1523","navn":"\u00d8rskog","\u00e5r":2019,"befolkning":2250,"latitude":62.4817419311,"longitude":6.9241060915,"fylke_navn_2019":"M\u00d8RE OG ROMSDAL","fylke_navn_2020":"TR\u00d8NDELAG"},{"kommunenummer":"1524","navn":"Norddal","\u00e5r":2019,"befolkning":1645,"latitude":62.2589111183,"longitude":7.4489622063,"fylke_navn_2019":"M\u00d8RE OG ROMSDAL","fylke_navn_2020":"M\u00d8RE OG ROMSDAL"},{"kommunenummer":"1524","navn":"Norddal","\u00e5r":2019,"befolkning":1645,"latitude":62.2589111183,"longitude":7.4489622063,"fylke_navn_2019":"M\u00d8RE OG ROMSDAL","fylke_navn_2020":"TR\u00d8NDELAG"},{"kommunenummer":"1525","navn":"Stranda","\u00e5r":2019,"befolkning":4565,"latitude":62.1340935778,"longitude":6.9811457765,"fylke_navn_2019":"M\u00d8RE OG ROMSDAL","fylke_navn_2020":"M\u00d8RE OG ROMSDAL"},{"kommunenummer":"1525","navn":"Stranda","\u00e5r":2019,"befolkning":4565,"latitude":62.1340935778,"longitude":6.9811457765,"fylke_navn_2019":"M\u00d8RE OG ROMSDAL","fylke_navn_2020":"TR\u00d8NDELAG"},{"kommunenummer":"1526","navn":"Stordal","\u00e5r":2019,"befolkning":947,"latitude":62.3952684071,"longitude":7.126891607,"fylke_navn_2019":"M\u00d8RE OG ROMSDAL","fylke_navn_2020":"M\u00d8RE OG ROMSDAL"},{"kommunenummer":"1526","navn":"Stordal","\u00e5r":2019,"befolkning":947,"latitude":62.3952684071,"longitude":7.126891607,"fylke_navn_2019":"M\u00d8RE OG ROMSDAL","fylke_navn_2020":"TR\u00d8NDELAG"},{"kommunenummer":"1528","navn":"Sykkylven","\u00e5r":2019,"befolkning":7657,"latitude":62.3493129545,"longitude":6.6566519824,"fylke_navn_2019":"M\u00d8RE OG ROMSDAL","fylke_navn_2020":"M\u00d8RE OG ROMSDAL"},{"kommunenummer":"1528","navn":"Sykkylven","\u00e5r":2019,"befolkning":7657,"latitude":62.3493129545,"longitude":6.6566519824,"fylke_navn_2019":"M\u00d8RE OG ROMSDAL","fylke_navn_2020":"TR\u00d8NDELAG"},{"kommunenummer":"1529","navn":"Skodje","\u00e5r":2019,"befolkning":4764,"latitude":62.5099038149,"longitude":6.6604825024,"fylke_navn_2019":"M\u00d8RE OG ROMSDAL","fylke_navn_2020":"M\u00d8RE OG ROMSDAL"},{"kommunenummer":"1529","navn":"Skodje","\u00e5r":2019,"befolkning":4764,"latitude":62.5099038149,"longitude":6.6604825024,"fylke_navn_2019":"M\u00d8RE OG ROMSDAL","fylke_navn_2020":"TR\u00d8NDELAG"},{"kommunenummer":"1531","navn":"Sula","\u00e5r":2019,"befolkning":9271,"latitude":62.4212464992,"longitude":6.2004604086,"fylke_navn_2019":"M\u00d8RE OG ROMSDAL","fylke_navn_2020":"M\u00d8RE OG ROMSDAL"},{"kommunenummer":"1531","navn":"Sula","\u00e5r":2019,"befolkning":9271,"latitude":62.4212464992,"longitude":6.2004604086,"fylke_navn_2019":"M\u00d8RE OG ROMSDAL","fylke_navn_2020":"TR\u00d8NDELAG"},{"kommunenummer":"1532","navn":"Giske","\u00e5r":2019,"befolkning":8398,"latitude":62.5250783481,"longitude":6.0606548934,"fylke_navn_2019":"M\u00d8RE OG ROMSDAL","fylke_navn_2020":"M\u00d8RE OG ROMSDAL"},{"kommunenummer":"1532","navn":"Giske","\u00e5r":2019,"befolkning":8398,"latitude":62.5250783481,"longitude":6.0606548934,"fylke_navn_2019":"M\u00d8RE OG ROMSDAL","fylke_navn_2020":"TR\u00d8NDELAG"},{"kommunenummer":"1534","navn":"Haram","\u00e5r":2019,"befolkning":9383,"latitude":62.592467984,"longitude":6.4653244317,"fylke_navn_2019":"M\u00d8RE OG ROMSDAL","fylke_navn_2020":"M\u00d8RE OG ROMSDAL"},{"kommunenummer":"1534","navn":"Haram","\u00e5r":2019,"befolkning":9383,"latitude":62.592467984,"longitude":6.4653244317,"fylke_navn_2019":"M\u00d8RE OG ROMSDAL","fylke_navn_2020":"TR\u00d8NDELAG"},{"kommunenummer":"1535","navn":"Vestnes","\u00e5r":2019,"befolkning":6536,"latitude":62.5617587071,"longitude":7.030506444,"fylke_navn_2019":"M\u00d8RE OG ROMSDAL","fylke_navn_2020":"M\u00d8RE OG ROMSDAL"},{"kommunenummer":"1535","navn":"Vestnes","\u00e5r":2019,"befolkning":6536,"latitude":62.5617587071,"longitude":7.030506444,"fylke_navn_2019":"M\u00d8RE OG ROMSDAL","fylke_navn_2020":"TR\u00d8NDELAG"},{"kommunenummer":"1539","navn":"Rauma","\u00e5r":2019,"befolkning":7487,"latitude":62.4513398042,"longitude":7.7576902458,"fylke_navn_2019":"M\u00d8RE OG ROMSDAL","fylke_navn_2020":"M\u00d8RE OG ROMSDAL"},{"kommunenummer":"1539","navn":"Rauma","\u00e5r":2019,"befolkning":7487,"latitude":62.4513398042,"longitude":7.7576902458,"fylke_navn_2019":"M\u00d8RE OG ROMSDAL","fylke_navn_2020":"TR\u00d8NDELAG"},{"kommunenummer":"1543","navn":"Nesset","\u00e5r":2019,"befolkning":2956,"latitude":62.5887178287,"longitude":8.1524322264,"fylke_navn_2019":"M\u00d8RE OG ROMSDAL","fylke_navn_2020":"M\u00d8RE OG ROMSDAL"},{"kommunenummer":"1543","navn":"Nesset","\u00e5r":2019,"befolkning":2956,"latitude":62.5887178287,"longitude":8.1524322264,"fylke_navn_2019":"M\u00d8RE OG ROMSDAL","fylke_navn_2020":"TR\u00d8NDELAG"},{"kommunenummer":"1545","navn":"Midsund","\u00e5r":2019,"befolkning":2019,"latitude":62.7036375994,"longitude":6.7688780317,"fylke_navn_2019":"M\u00d8RE OG ROMSDAL","fylke_navn_2020":"M\u00d8RE OG ROMSDAL"},{"kommunenummer":"1545","navn":"Midsund","\u00e5r":2019,"befolkning":2019,"latitude":62.7036375994,"longitude":6.7688780317,"fylke_navn_2019":"M\u00d8RE OG ROMSDAL","fylke_navn_2020":"TR\u00d8NDELAG"},{"kommunenummer":"1546","navn":"Sand\u00f8y","\u00e5r":2019,"befolkning":1238,"latitude":62.7555440328,"longitude":6.4530515674,"fylke_navn_2019":"M\u00d8RE OG ROMSDAL","fylke_navn_2020":"M\u00d8RE OG ROMSDAL"},{"kommunenummer":"1546","navn":"Sand\u00f8y","\u00e5r":2019,"befolkning":1238,"latitude":62.7555440328,"longitude":6.4530515674,"fylke_navn_2019":"M\u00d8RE OG ROMSDAL","fylke_navn_2020":"TR\u00d8NDELAG"},{"kommunenummer":"1547","navn":"Aukra","\u00e5r":2019,"befolkning":3539,"latitude":62.8120543001,"longitude":6.8941025768,"fylke_navn_2019":"M\u00d8RE OG ROMSDAL","fylke_navn_2020":"M\u00d8RE OG ROMSDAL"},{"kommunenummer":"1547","navn":"Aukra","\u00e5r":2019,"befolkning":3539,"latitude":62.8120543001,"longitude":6.8941025768,"fylke_navn_2019":"M\u00d8RE OG ROMSDAL","fylke_navn_2020":"TR\u00d8NDELAG"},{"kommunenummer":"1548","navn":"Fr\u00e6na","\u00e5r":2019,"befolkning":9800,"latitude":62.8744726174,"longitude":7.158181068,"fylke_navn_2019":"M\u00d8RE OG ROMSDAL","fylke_navn_2020":"M\u00d8RE OG ROMSDAL"},{"kommunenummer":"1548","navn":"Fr\u00e6na","\u00e5r":2019,"befolkning":9800,"latitude":62.8744726174,"longitude":7.158181068,"fylke_navn_2019":"M\u00d8RE OG ROMSDAL","fylke_navn_2020":"TR\u00d8NDELAG"},{"kommunenummer":"1551","navn":"Eide","\u00e5r":2019,"befolkning":3433,"latitude":62.9110585287,"longitude":7.3988598891,"fylke_navn_2019":"M\u00d8RE OG ROMSDAL","fylke_navn_2020":"M\u00d8RE OG ROMSDAL"},{"kommunenummer":"1551","navn":"Eide","\u00e5r":2019,"befolkning":3433,"latitude":62.9110585287,"longitude":7.3988598891,"fylke_navn_2019":"M\u00d8RE OG ROMSDAL","fylke_navn_2020":"TR\u00d8NDELAG"},{"kommunenummer":"1554","navn":"Aver\u00f8y","\u00e5r":2019,"befolkning":5849,"latitude":63.0100968361,"longitude":7.5522951665,"fylke_navn_2019":"M\u00d8RE OG ROMSDAL","fylke_navn_2020":"M\u00d8RE OG ROMSDAL"},{"kommunenummer":"1554","navn":"Aver\u00f8y","\u00e5r":2019,"befolkning":5849,"latitude":63.0100968361,"longitude":7.5522951665,"fylke_navn_2019":"M\u00d8RE OG ROMSDAL","fylke_navn_2020":"TR\u00d8NDELAG"},{"kommunenummer":"1557","navn":"Gjemnes","\u00e5r":2019,"befolkning":2641,"latitude":62.8934192659,"longitude":7.8226606105,"fylke_navn_2019":"M\u00d8RE OG ROMSDAL","fylke_navn_2020":"M\u00d8RE OG ROMSDAL"},{"kommunenummer":"1557","navn":"Gjemnes","\u00e5r":2019,"befolkning":2641,"latitude":62.8934192659,"longitude":7.8226606105,"fylke_navn_2019":"M\u00d8RE OG ROMSDAL","fylke_navn_2020":"TR\u00d8NDELAG"},{"kommunenummer":"1560","navn":"Tingvoll","\u00e5r":2019,"befolkning":3045,"latitude":62.9482444307,"longitude":8.1797268804,"fylke_navn_2019":"M\u00d8RE OG ROMSDAL","fylke_navn_2020":"M\u00d8RE OG ROMSDAL"},{"kommunenummer":"1560","navn":"Tingvoll","\u00e5r":2019,"befolkning":3045,"latitude":62.9482444307,"longitude":8.1797268804,"fylke_navn_2019":"M\u00d8RE OG ROMSDAL","fylke_navn_2020":"TR\u00d8NDELAG"},{"kommunenummer":"1563","navn":"Sunndal","\u00e5r":2019,"befolkning":7106,"latitude":62.5839768922,"longitude":8.7141402399,"fylke_navn_2019":"M\u00d8RE OG ROMSDAL","fylke_navn_2020":"M\u00d8RE OG ROMSDAL"},{"kommunenummer":"1563","navn":"Sunndal","\u00e5r":2019,"befolkning":7106,"latitude":62.5839768922,"longitude":8.7141402399,"fylke_navn_2019":"M\u00d8RE OG ROMSDAL","fylke_navn_2020":"TR\u00d8NDELAG"},{"kommunenummer":"1566","navn":"Surnadal","\u00e5r":2019,"befolkning":5928,"latitude":62.920727268,"longitude":8.8600767371,"fylke_navn_2019":"M\u00d8RE OG ROMSDAL","fylke_navn_2020":"M\u00d8RE OG ROMSDAL"},{"kommunenummer":"1566","navn":"Surnadal","\u00e5r":2019,"befolkning":5928,"latitude":62.920727268,"longitude":8.8600767371,"fylke_navn_2019":"M\u00d8RE OG ROMSDAL","fylke_navn_2020":"TR\u00d8NDELAG"},{"kommunenummer":"1571","navn":"Halsa","\u00e5r":2019,"befolkning":1574,"latitude":63.1085682438,"longitude":8.4917230744,"fylke_navn_2019":"M\u00d8RE OG ROMSDAL","fylke_navn_2020":"M\u00d8RE OG ROMSDAL"},{"kommunenummer":"1571","navn":"Halsa","\u00e5r":2019,"befolkning":1574,"latitude":63.1085682438,"longitude":8.4917230744,"fylke_navn_2019":"M\u00d8RE OG ROMSDAL","fylke_navn_2020":"TR\u00d8NDELAG"},{"kommunenummer":"1573","navn":"Sm\u00f8la","\u00e5r":2019,"befolkning":2134,"latitude":63.3899239208,"longitude":8.0142306264,"fylke_navn_2019":"M\u00d8RE OG ROMSDAL","fylke_navn_2020":"M\u00d8RE OG ROMSDAL"},{"kommunenummer":"1573","navn":"Sm\u00f8la","\u00e5r":2019,"befolkning":2134,"latitude":63.3899239208,"longitude":8.0142306264,"fylke_navn_2019":"M\u00d8RE OG ROMSDAL","fylke_navn_2020":"TR\u00d8NDELAG"},{"kommunenummer":"1576","navn":"Aure","\u00e5r":2019,"befolkning":3553,"latitude":63.257811742,"longitude":8.5015612241,"fylke_navn_2019":"M\u00d8RE OG ROMSDAL","fylke_navn_2020":"M\u00d8RE OG ROMSDAL"},{"kommunenummer":"1576","navn":"Aure","\u00e5r":2019,"befolkning":3553,"latitude":63.257811742,"longitude":8.5015612241,"fylke_navn_2019":"M\u00d8RE OG ROMSDAL","fylke_navn_2020":"TR\u00d8NDELAG"},{"kommunenummer":"1804","navn":"Bod\u00f8","\u00e5r":2019,"befolkning":52024,"latitude":67.2619369916,"longitude":14.8450271342,"fylke_navn_2019":"NORDLAND","fylke_navn_2020":"NORDLAND"},{"kommunenummer":"1804","navn":"Bod\u00f8","\u00e5r":2019,"befolkning":52024,"latitude":67.2619369916,"longitude":14.8450271342,"fylke_navn_2019":"NORDLAND","fylke_navn_2020":"TROMS OG FINNMARK"},{"kommunenummer":"1805","navn":"Narvik","\u00e5r":2019,"befolkning":18630,"latitude":68.3101970628,"longitude":17.7036290329,"fylke_navn_2019":"NORDLAND","fylke_navn_2020":"NORDLAND"},{"kommunenummer":"1805","navn":"Narvik","\u00e5r":2019,"befolkning":18630,"latitude":68.3101970628,"longitude":17.7036290329,"fylke_navn_2019":"NORDLAND","fylke_navn_2020":"TROMS OG FINNMARK"},{"kommunenummer":"1811","navn":"Bindal","\u00e5r":2019,"befolkning":1450,"latitude":65.1106822612,"longitude":12.5850961221,"fylke_navn_2019":"NORDLAND","fylke_navn_2020":"NORDLAND"},{"kommunenummer":"1811","navn":"Bindal","\u00e5r":2019,"befolkning":1450,"latitude":65.1106822612,"longitude":12.5850961221,"fylke_navn_2019":"NORDLAND","fylke_navn_2020":"TROMS OG FINNMARK"},{"kommunenummer":"1812","navn":"S\u00f8mna","\u00e5r":2019,"befolkning":2014,"latitude":65.3227289804,"longitude":12.2366916143,"fylke_navn_2019":"NORDLAND","fylke_navn_2020":"NORDLAND"},{"kommunenummer":"1812","navn":"S\u00f8mna","\u00e5r":2019,"befolkning":2014,"latitude":65.3227289804,"longitude":12.2366916143,"fylke_navn_2019":"NORDLAND","fylke_navn_2020":"TROMS OG FINNMARK"},{"kommunenummer":"1813","navn":"Br\u00f8nn\u00f8y","\u00e5r":2019,"befolkning":7916,"latitude":65.4101776344,"longitude":12.6823786505,"fylke_navn_2019":"NORDLAND","fylke_navn_2020":"NORDLAND"},{"kommunenummer":"1813","navn":"Br\u00f8nn\u00f8y","\u00e5r":2019,"befolkning":7916,"latitude":65.4101776344,"longitude":12.6823786505,"fylke_navn_2019":"NORDLAND","fylke_navn_2020":"TROMS OG FINNMARK"},{"kommunenummer":"1815","navn":"Vega","\u00e5r":2019,"befolkning":1232,"latitude":65.6536555936,"longitude":11.9280474718,"fylke_navn_2019":"NORDLAND","fylke_navn_2020":"NORDLAND"},{"kommunenummer":"1815","navn":"Vega","\u00e5r":2019,"befolkning":1232,"latitude":65.6536555936,"longitude":11.9280474718,"fylke_navn_2019":"NORDLAND","fylke_navn_2020":"TROMS OG FINNMARK"},{"kommunenummer":"1816","navn":"Vevelstad","\u00e5r":2019,"befolkning":497,"latitude":65.6398014534,"longitude":12.7041846812,"fylke_navn_2019":"NORDLAND","fylke_navn_2020":"NORDLAND"},{"kommunenummer":"1816","navn":"Vevelstad","\u00e5r":2019,"befolkning":497,"latitude":65.6398014534,"longitude":12.7041846812,"fylke_navn_2019":"NORDLAND","fylke_navn_2020":"TROMS OG FINNMARK"},{"kommunenummer":"1818","navn":"Her\u00f8y","\u00e5r":2019,"befolkning":1780,"latitude":65.9683729103,"longitude":12.2419812943,"fylke_navn_2019":"NORDLAND","fylke_navn_2020":"NORDLAND"},{"kommunenummer":"1818","navn":"Her\u00f8y","\u00e5r":2019,"befolkning":1780,"latitude":65.9683729103,"longitude":12.2419812943,"fylke_navn_2019":"NORDLAND","fylke_navn_2020":"TROMS OG FINNMARK"},{"kommunenummer":"1820","navn":"Alstahaug","\u00e5r":2019,"befolkning":7415,"latitude":65.9152016653,"longitude":12.5144480647,"fylke_navn_2019":"NORDLAND","fylke_navn_2020":"NORDLAND"},{"kommunenummer":"1820","navn":"Alstahaug","\u00e5r":2019,"befolkning":7415,"latitude":65.9152016653,"longitude":12.5144480647,"fylke_navn_2019":"NORDLAND","fylke_navn_2020":"TROMS OG FINNMARK"},{"kommunenummer":"1822","navn":"Leirfjord","\u00e5r":2019,"befolkning":2320,"latitude":66.0940883056,"longitude":13.0733555677,"fylke_navn_2019":"NORDLAND","fylke_navn_2020":"NORDLAND"},{"kommunenummer":"1822","navn":"Leirfjord","\u00e5r":2019,"befolkning":2320,"latitude":66.0940883056,"longitude":13.0733555677,"fylke_navn_2019":"NORDLAND","fylke_navn_2020":"TROMS OG FINNMARK"},{"kommunenummer":"1824","navn":"Vefsn","\u00e5r":2019,"befolkning":13403,"latitude":65.8535593376,"longitude":13.2280264458,"fylke_navn_2019":"NORDLAND","fylke_navn_2020":"NORDLAND"},{"kommunenummer":"1824","navn":"Vefsn","\u00e5r":2019,"befolkning":13403,"latitude":65.8535593376,"longitude":13.2280264458,"fylke_navn_2019":"NORDLAND","fylke_navn_2020":"TROMS OG FINNMARK"},{"kommunenummer":"1825","navn":"Grane","\u00e5r":2019,"befolkning":1493,"latitude":65.3998169957,"longitude":13.4503875255,"fylke_navn_2019":"NORDLAND","fylke_navn_2020":"NORDLAND"},{"kommunenummer":"1825","navn":"Grane","\u00e5r":2019,"befolkning":1493,"latitude":65.3998169957,"longitude":13.4503875255,"fylke_navn_2019":"NORDLAND","fylke_navn_2020":"TROMS OG FINNMARK"},{"kommunenummer":"1826","navn":"Hattfjelldal","\u00e5r":2019,"befolkning":1359,"latitude":65.5055755069,"longitude":14.1371828115,"fylke_navn_2019":"NORDLAND","fylke_navn_2020":"NORDLAND"},{"kommunenummer":"1826","navn":"Hattfjelldal","\u00e5r":2019,"befolkning":1359,"latitude":65.5055755069,"longitude":14.1371828115,"fylke_navn_2019":"NORDLAND","fylke_navn_2020":"TROMS OG FINNMARK"},{"kommunenummer":"1827","navn":"D\u00f8nna","\u00e5r":2019,"befolkning":1391,"latitude":66.1180935906,"longitude":12.5241587658,"fylke_navn_2019":"NORDLAND","fylke_navn_2020":"NORDLAND"},{"kommunenummer":"1827","navn":"D\u00f8nna","\u00e5r":2019,"befolkning":1391,"latitude":66.1180935906,"longitude":12.5241587658,"fylke_navn_2019":"NORDLAND","fylke_navn_2020":"TROMS OG FINNMARK"},{"kommunenummer":"1828","navn":"Nesna","\u00e5r":2019,"befolkning":1792,"latitude":66.2394097668,"longitude":13.0225176619,"fylke_navn_2019":"NORDLAND","fylke_navn_2020":"NORDLAND"},{"kommunenummer":"1828","navn":"Nesna","\u00e5r":2019,"befolkning":1792,"latitude":66.2394097668,"longitude":13.0225176619,"fylke_navn_2019":"NORDLAND","fylke_navn_2020":"TROMS OG FINNMARK"},{"kommunenummer":"1832","navn":"Hemnes","\u00e5r":2019,"befolkning":4501,"latitude":66.0066892926,"longitude":14.0437260438,"fylke_navn_2019":"NORDLAND","fylke_navn_2020":"NORDLAND"},{"kommunenummer":"1832","navn":"Hemnes","\u00e5r":2019,"befolkning":4501,"latitude":66.0066892926,"longitude":14.0437260438,"fylke_navn_2019":"NORDLAND","fylke_navn_2020":"TROMS OG FINNMARK"},{"kommunenummer":"1833","navn":"Rana","\u00e5r":2019,"befolkning":26315,"latitude":66.4146614881,"longitude":14.5119103103,"fylke_navn_2019":"NORDLAND","fylke_navn_2020":"NORDLAND"},{"kommunenummer":"1833","navn":"Rana","\u00e5r":2019,"befolkning":26315,"latitude":66.4146614881,"longitude":14.5119103103,"fylke_navn_2019":"NORDLAND","fylke_navn_2020":"TROMS OG FINNMARK"},{"kommunenummer":"1834","navn":"Lur\u00f8y","\u00e5r":2019,"befolkning":1904,"latitude":66.4111776442,"longitude":13.0144074341,"fylke_navn_2019":"NORDLAND","fylke_navn_2020":"NORDLAND"},{"kommunenummer":"1834","navn":"Lur\u00f8y","\u00e5r":2019,"befolkning":1904,"latitude":66.4111776442,"longitude":13.0144074341,"fylke_navn_2019":"NORDLAND","fylke_navn_2020":"TROMS OG FINNMARK"},{"kommunenummer":"1835","navn":null,"\u00e5r":2019,"befolkning":456,"latitude":null,"longitude":null,"fylke_navn_2019":null,"fylke_navn_2020":null},{"kommunenummer":"1836","navn":"R\u00f8d\u00f8y","\u00e5r":2019,"befolkning":1238,"latitude":66.5676671824,"longitude":13.4540053503,"fylke_navn_2019":"NORDLAND","fylke_navn_2020":"NORDLAND"},{"kommunenummer":"1836","navn":"R\u00f8d\u00f8y","\u00e5r":2019,"befolkning":1238,"latitude":66.5676671824,"longitude":13.4540053503,"fylke_navn_2019":"NORDLAND","fylke_navn_2020":"TROMS OG FINNMARK"},{"kommunenummer":"1837","navn":"Mel\u00f8y","\u00e5r":2019,"befolkning":6331,"latitude":66.7657043987,"longitude":13.8853788795,"fylke_navn_2019":"NORDLAND","fylke_navn_2020":"NORDLAND"},{"kommunenummer":"1837","navn":"Mel\u00f8y","\u00e5r":2019,"befolkning":6331,"latitude":66.7657043987,"longitude":13.8853788795,"fylke_navn_2019":"NORDLAND","fylke_navn_2020":"TROMS OG FINNMARK"},{"kommunenummer":"1838","navn":"Gildesk\u00e5l","\u00e5r":2019,"befolkning":1978,"latitude":66.9676666306,"longitude":14.1197307415,"fylke_navn_2019":"NORDLAND","fylke_navn_2020":"NORDLAND"},{"kommunenummer":"1838","navn":"Gildesk\u00e5l","\u00e5r":2019,"befolkning":1978,"latitude":66.9676666306,"longitude":14.1197307415,"fylke_navn_2019":"NORDLAND","fylke_navn_2020":"TROMS OG FINNMARK"},{"kommunenummer":"1839","navn":"Beiarn","\u00e5r":2019,"befolkning":1022,"latitude":66.8858492326,"longitude":14.6579787075,"fylke_navn_2019":"NORDLAND","fylke_navn_2020":"NORDLAND"},{"kommunenummer":"1839","navn":"Beiarn","\u00e5r":2019,"befolkning":1022,"latitude":66.8858492326,"longitude":14.6579787075,"fylke_navn_2019":"NORDLAND","fylke_navn_2020":"TROMS OG FINNMARK"},{"kommunenummer":"1840","navn":"Saltdal","\u00e5r":2019,"befolkning":4657,"latitude":66.8880326314,"longitude":15.5270991743,"fylke_navn_2019":"NORDLAND","fylke_navn_2020":"NORDLAND"},{"kommunenummer":"1840","navn":"Saltdal","\u00e5r":2019,"befolkning":4657,"latitude":66.8880326314,"longitude":15.5270991743,"fylke_navn_2019":"NORDLAND","fylke_navn_2020":"TROMS OG FINNMARK"},{"kommunenummer":"1841","navn":"Fauske","\u00e5r":2019,"befolkning":9760,"latitude":67.2208904199,"longitude":15.8133515844,"fylke_navn_2019":"NORDLAND","fylke_navn_2020":"NORDLAND"},{"kommunenummer":"1841","navn":"Fauske","\u00e5r":2019,"befolkning":9760,"latitude":67.2208904199,"longitude":15.8133515844,"fylke_navn_2019":"NORDLAND","fylke_navn_2020":"TROMS OG FINNMARK"},{"kommunenummer":"1845","navn":"S\u00f8rfold","\u00e5r":2019,"befolkning":1975,"latitude":67.5111620029,"longitude":15.7891422646,"fylke_navn_2019":"NORDLAND","fylke_navn_2020":"NORDLAND"},{"kommunenummer":"1845","navn":"S\u00f8rfold","\u00e5r":2019,"befolkning":1975,"latitude":67.5111620029,"longitude":15.7891422646,"fylke_navn_2019":"NORDLAND","fylke_navn_2020":"TROMS OG FINNMARK"},{"kommunenummer":"1848","navn":"Steigen","\u00e5r":2019,"befolkning":2576,"latitude":67.8123653362,"longitude":15.304722455,"fylke_navn_2019":"NORDLAND","fylke_navn_2020":"NORDLAND"},{"kommunenummer":"1848","navn":"Steigen","\u00e5r":2019,"befolkning":2576,"latitude":67.8123653362,"longitude":15.304722455,"fylke_navn_2019":"NORDLAND","fylke_navn_2020":"TROMS OG FINNMARK"},{"kommunenummer":"1849","navn":"Hamar\u00f8y","\u00e5r":2019,"befolkning":1747,"latitude":67.8919595628,"longitude":15.9594235611,"fylke_navn_2019":"NORDLAND","fylke_navn_2020":"NORDLAND"},{"kommunenummer":"1849","navn":"Hamar\u00f8y","\u00e5r":2019,"befolkning":1747,"latitude":67.8919595628,"longitude":15.9594235611,"fylke_navn_2019":"NORDLAND","fylke_navn_2020":"TROMS OG FINNMARK"},{"kommunenummer":"1850","navn":"Tysfjord","\u00e5r":2019,"befolkning":1925,"latitude":67.9868526238,"longitude":16.4877897565,"fylke_navn_2019":"NORDLAND","fylke_navn_2020":"NORDLAND"},{"kommunenummer":"1850","navn":"Tysfjord","\u00e5r":2019,"befolkning":1925,"latitude":67.9868526238,"longitude":16.4877897565,"fylke_navn_2019":"NORDLAND","fylke_navn_2020":"TROMS OG FINNMARK"},{"kommunenummer":"1851","navn":"L\u00f8dingen","\u00e5r":2019,"befolkning":2077,"latitude":68.4465921138,"longitude":15.6764157555,"fylke_navn_2019":"NORDLAND","fylke_navn_2020":"NORDLAND"},{"kommunenummer":"1851","navn":"L\u00f8dingen","\u00e5r":2019,"befolkning":2077,"latitude":68.4465921138,"longitude":15.6764157555,"fylke_navn_2019":"NORDLAND","fylke_navn_2020":"TROMS OG FINNMARK"},{"kommunenummer":"1852","navn":"Tjeldsund","\u00e5r":2019,"befolkning":1259,"latitude":68.5102690421,"longitude":16.2866441251,"fylke_navn_2019":"NORDLAND","fylke_navn_2020":"NORDLAND"},{"kommunenummer":"1852","navn":"Tjeldsund","\u00e5r":2019,"befolkning":1259,"latitude":68.5102690421,"longitude":16.2866441251,"fylke_navn_2019":"NORDLAND","fylke_navn_2020":"TROMS OG FINNMARK"},{"kommunenummer":"1853","navn":"Evenes","\u00e5r":2019,"befolkning":1387,"latitude":68.5099029418,"longitude":16.9676890031,"fylke_navn_2019":"NORDLAND","fylke_navn_2020":"NORDLAND"},{"kommunenummer":"1853","navn":"Evenes","\u00e5r":2019,"befolkning":1387,"latitude":68.5099029418,"longitude":16.9676890031,"fylke_navn_2019":"NORDLAND","fylke_navn_2020":"TROMS OG FINNMARK"},{"kommunenummer":"1854","navn":"Ballangen","\u00e5r":2019,"befolkning":2470,"latitude":68.2641714149,"longitude":16.8033310296,"fylke_navn_2019":"NORDLAND","fylke_navn_2020":"NORDLAND"},{"kommunenummer":"1854","navn":"Ballangen","\u00e5r":2019,"befolkning":2470,"latitude":68.2641714149,"longitude":16.8033310296,"fylke_navn_2019":"NORDLAND","fylke_navn_2020":"TROMS OG FINNMARK"},{"kommunenummer":"1856","navn":null,"\u00e5r":2019,"befolkning":508,"latitude":null,"longitude":null,"fylke_navn_2019":null,"fylke_navn_2020":null},{"kommunenummer":"1857","navn":"V\u00e6r\u00f8y","\u00e5r":2019,"befolkning":732,"latitude":67.6658955576,"longitude":12.6551958675,"fylke_navn_2019":"NORDLAND","fylke_navn_2020":"NORDLAND"},{"kommunenummer":"1857","navn":"V\u00e6r\u00f8y","\u00e5r":2019,"befolkning":732,"latitude":67.6658955576,"longitude":12.6551958675,"fylke_navn_2019":"NORDLAND","fylke_navn_2020":"TROMS OG FINNMARK"},{"kommunenummer":"1859","navn":"Flakstad","\u00e5r":2019,"befolkning":1292,"latitude":68.0648643787,"longitude":13.2350000816,"fylke_navn_2019":"NORDLAND","fylke_navn_2020":"NORDLAND"},{"kommunenummer":"1859","navn":"Flakstad","\u00e5r":2019,"befolkning":1292,"latitude":68.0648643787,"longitude":13.2350000816,"fylke_navn_2019":"NORDLAND","fylke_navn_2020":"TROMS OG FINNMARK"},{"kommunenummer":"1860","navn":"Vestv\u00e5g\u00f8y","\u00e5r":2019,"befolkning":11480,"latitude":68.2130483532,"longitude":13.7719600741,"fylke_navn_2019":"NORDLAND","fylke_navn_2020":"NORDLAND"},{"kommunenummer":"1860","navn":"Vestv\u00e5g\u00f8y","\u00e5r":2019,"befolkning":11480,"latitude":68.2130483532,"longitude":13.7719600741,"fylke_navn_2019":"NORDLAND","fylke_navn_2020":"TROMS OG FINNMARK"},{"kommunenummer":"1865","navn":"V\u00e5gan","\u00e5r":2019,"befolkning":9595,"latitude":68.2905823479,"longitude":14.5681774289,"fylke_navn_2019":"NORDLAND","fylke_navn_2020":"NORDLAND"},{"kommunenummer":"1865","navn":"V\u00e5gan","\u00e5r":2019,"befolkning":9595,"latitude":68.2905823479,"longitude":14.5681774289,"fylke_navn_2019":"NORDLAND","fylke_navn_2020":"TROMS OG FINNMARK"},{"kommunenummer":"1866","navn":"Hadsel","\u00e5r":2019,"befolkning":8091,"latitude":68.4871941404,"longitude":14.9851914718,"fylke_navn_2019":"NORDLAND","fylke_navn_2020":"NORDLAND"},{"kommunenummer":"1866","navn":"Hadsel","\u00e5r":2019,"befolkning":8091,"latitude":68.4871941404,"longitude":14.9851914718,"fylke_navn_2019":"NORDLAND","fylke_navn_2020":"TROMS OG FINNMARK"},{"kommunenummer":"1867","navn":"B\u00f8","\u00e5r":2019,"befolkning":2616,"latitude":68.7137503975,"longitude":14.603916012,"fylke_navn_2019":"NORDLAND","fylke_navn_2020":"NORDLAND"},{"kommunenummer":"1867","navn":"B\u00f8","\u00e5r":2019,"befolkning":2616,"latitude":68.7137503975,"longitude":14.603916012,"fylke_navn_2019":"NORDLAND","fylke_navn_2020":"TROMS OG FINNMARK"},{"kommunenummer":"1868","navn":"\u00d8ksnes","\u00e5r":2019,"befolkning":4449,"latitude":68.8687772848,"longitude":15.0579032758,"fylke_navn_2019":"NORDLAND","fylke_navn_2020":"NORDLAND"},{"kommunenummer":"1868","navn":"\u00d8ksnes","\u00e5r":2019,"befolkning":4449,"latitude":68.8687772848,"longitude":15.0579032758,"fylke_navn_2019":"NORDLAND","fylke_navn_2020":"TROMS OG FINNMARK"},{"kommunenummer":"1870","navn":"Sortland","\u00e5r":2019,"befolkning":10518,"latitude":68.7190758002,"longitude":15.4850009944,"fylke_navn_2019":"NORDLAND","fylke_navn_2020":"NORDLAND"},{"kommunenummer":"1870","navn":"Sortland","\u00e5r":2019,"befolkning":10518,"latitude":68.7190758002,"longitude":15.4850009944,"fylke_navn_2019":"NORDLAND","fylke_navn_2020":"TROMS OG FINNMARK"},{"kommunenummer":"1871","navn":"And\u00f8y","\u00e5r":2019,"befolkning":4771,"latitude":69.0506371522,"longitude":15.7772638661,"fylke_navn_2019":"NORDLAND","fylke_navn_2020":"NORDLAND"},{"kommunenummer":"1871","navn":"And\u00f8y","\u00e5r":2019,"befolkning":4771,"latitude":69.0506371522,"longitude":15.7772638661,"fylke_navn_2019":"NORDLAND","fylke_navn_2020":"TROMS OG FINNMARK"},{"kommunenummer":"1874","navn":"Moskenes","\u00e5r":2019,"befolkning":1039,"latitude":67.9290287978,"longitude":12.9733263726,"fylke_navn_2019":"NORDLAND","fylke_navn_2020":"NORDLAND"},{"kommunenummer":"1874","navn":"Moskenes","\u00e5r":2019,"befolkning":1039,"latitude":67.9290287978,"longitude":12.9733263726,"fylke_navn_2019":"NORDLAND","fylke_navn_2020":"TROMS OG FINNMARK"},{"kommunenummer":"1902","navn":"Troms\u00f8","\u00e5r":2019,"befolkning":76649,"latitude":69.6379356413,"longitude":19.0860580868,"fylke_navn_2019":"TROMS","fylke_navn_2020":"TROMS OG FINNMARK"},{"kommunenummer":"1903","navn":"Harstad","\u00e5r":2019,"befolkning":24827,"latitude":68.7995653401,"longitude":16.4561565076,"fylke_navn_2019":"TROMS","fylke_navn_2020":"TROMS OG FINNMARK"},{"kommunenummer":"1911","navn":"Kv\u00e6fjord","\u00e5r":2019,"befolkning":2858,"latitude":68.6661676057,"longitude":16.0253027378,"fylke_navn_2019":"TROMS","fylke_navn_2020":"TROMS OG FINNMARK"},{"kommunenummer":"1913","navn":"Sk\u00e5nland","\u00e5r":2019,"befolkning":3009,"latitude":68.6141162011,"longitude":16.9919791761,"fylke_navn_2019":"TROMS","fylke_navn_2020":"TROMS OG FINNMARK"},{"kommunenummer":"1917","navn":"Ibestad","\u00e5r":2019,"befolkning":1375,"latitude":68.8313060859,"longitude":17.1628049537,"fylke_navn_2019":"TROMS","fylke_navn_2020":"TROMS OG FINNMARK"},{"kommunenummer":"1919","navn":"Gratangen","\u00e5r":2019,"befolkning":1105,"latitude":68.6876380067,"longitude":17.5185967282,"fylke_navn_2019":"TROMS","fylke_navn_2020":"TROMS OG FINNMARK"},{"kommunenummer":"1920","navn":"Lavangen","\u00e5r":2019,"befolkning":1042,"latitude":68.7271471704,"longitude":17.809520611,"fylke_navn_2019":"TROMS","fylke_navn_2020":"TROMS OG FINNMARK"},{"kommunenummer":"1922","navn":"Bardu","\u00e5r":2019,"befolkning":4030,"latitude":68.6638006437,"longitude":18.8879598302,"fylke_navn_2019":"TROMS","fylke_navn_2020":"TROMS OG FINNMARK"},{"kommunenummer":"1923","navn":"Salangen","\u00e5r":2019,"befolkning":2183,"latitude":68.894087296,"longitude":17.8790055305,"fylke_navn_2019":"TROMS","fylke_navn_2020":"TROMS OG FINNMARK"},{"kommunenummer":"1924","navn":"M\u00e5lselv","\u00e5r":2019,"befolkning":6805,"latitude":68.9115036323,"longitude":19.3786217273,"fylke_navn_2019":"TROMS","fylke_navn_2020":"TROMS OG FINNMARK"},{"kommunenummer":"1925","navn":"S\u00f8rreisa","\u00e5r":2019,"befolkning":3489,"latitude":69.0918746563,"longitude":18.1652642719,"fylke_navn_2019":"TROMS","fylke_navn_2020":"TROMS OG FINNMARK"},{"kommunenummer":"1926","navn":"Dyr\u00f8y","\u00e5r":2019,"befolkning":1129,"latitude":69.0339507559,"longitude":17.6942429813,"fylke_navn_2019":"TROMS","fylke_navn_2020":"TROMS OG FINNMARK"},{"kommunenummer":"1927","navn":"Tran\u00f8y","\u00e5r":2019,"befolkning":1513,"latitude":69.1759223668,"longitude":17.3294367099,"fylke_navn_2019":"TROMS","fylke_navn_2020":"TROMS OG FINNMARK"},{"kommunenummer":"1928","navn":"Torsken","\u00e5r":2019,"befolkning":931,"latitude":69.2940106275,"longitude":17.1154186943,"fylke_navn_2019":"TROMS","fylke_navn_2020":"TROMS OG FINNMARK"},{"kommunenummer":"1929","navn":"Berg","\u00e5r":2019,"befolkning":888,"latitude":69.4180448416,"longitude":17.4359542963,"fylke_navn_2019":"TROMS","fylke_navn_2020":"TROMS OG FINNMARK"},{"kommunenummer":"1931","navn":"Lenvik","\u00e5r":2019,"befolkning":11679,"latitude":69.3684025253,"longitude":17.9788506079,"fylke_navn_2019":"TROMS","fylke_navn_2020":"TROMS OG FINNMARK"},{"kommunenummer":"1933","navn":"Balsfjord","\u00e5r":2019,"befolkning":5625,"latitude":69.2463088105,"longitude":19.253144351,"fylke_navn_2019":"TROMS","fylke_navn_2020":"TROMS OG FINNMARK"},{"kommunenummer":"1936","navn":"Karls\u00f8y","\u00e5r":2019,"befolkning":2252,"latitude":70.0430940907,"longitude":19.4238610977,"fylke_navn_2019":"TROMS","fylke_navn_2020":"TROMS OG FINNMARK"},{"kommunenummer":"1938","navn":"Lyngen","\u00e5r":2019,"befolkning":2847,"latitude":69.6835115476,"longitude":20.106708313,"fylke_navn_2019":"TROMS","fylke_navn_2020":"TROMS OG FINNMARK"},{"kommunenummer":"1939","navn":"Storfjord","\u00e5r":2019,"befolkning":1841,"latitude":69.2250136701,"longitude":20.3731796979,"fylke_navn_2019":"TROMS","fylke_navn_2020":"TROMS OG FINNMARK"},{"kommunenummer":"1940","navn":"G\u00e1ivuotna","\u00e5r":2019,"befolkning":2097,"latitude":69.461951232,"longitude":20.7749945781,"fylke_navn_2019":"TROMS","fylke_navn_2020":"TROMS OG FINNMARK"},{"kommunenummer":"1941","navn":"Skjerv\u00f8y","\u00e5r":2019,"befolkning":2917,"latitude":70.0699619543,"longitude":20.6861498236,"fylke_navn_2019":"TROMS","fylke_navn_2020":"TROMS OG FINNMARK"},{"kommunenummer":"1942","navn":"Nordreisa","\u00e5r":2019,"befolkning":4909,"latitude":69.5125968632,"longitude":21.576371019,"fylke_navn_2019":"TROMS","fylke_navn_2020":"TROMS OG FINNMARK"},{"kommunenummer":"1943","navn":"Kv\u00e6nangen","\u00e5r":2019,"befolkning":1202,"latitude":69.7994696775,"longitude":22.0699595163,"fylke_navn_2019":"TROMS","fylke_navn_2020":"TROMS OG FINNMARK"},{"kommunenummer":"2002","navn":"Vard\u00f8","\u00e5r":2019,"befolkning":2081,"latitude":70.3340330891,"longitude":30.6298645788,"fylke_navn_2019":"FINNMARK","fylke_navn_2020":"TROMS OG FINNMARK"},{"kommunenummer":"2003","navn":"Vads\u00f8","\u00e5r":2019,"befolkning":5894,"latitude":70.2322533892,"longitude":29.6851579683,"fylke_navn_2019":"FINNMARK","fylke_navn_2020":"TROMS OG FINNMARK"},{"kommunenummer":"2004","navn":"Hammerfest","\u00e5r":2019,"befolkning":10536,"latitude":70.6191847473,"longitude":23.3286004705,"fylke_navn_2019":"FINNMARK","fylke_navn_2020":"TROMS OG FINNMARK"},{"kommunenummer":"2011","navn":"Kautokeino","\u00e5r":2019,"befolkning":2924,"latitude":69.1340185534,"longitude":23.550324558,"fylke_navn_2019":"FINNMARK","fylke_navn_2020":"TROMS OG FINNMARK"},{"kommunenummer":"2012","navn":"Alta","\u00e5r":2019,"befolkning":20665,"latitude":69.9842692102,"longitude":23.2480652901,"fylke_navn_2019":"FINNMARK","fylke_navn_2020":"TROMS OG FINNMARK"},{"kommunenummer":"2014","navn":"Loppa","\u00e5r":2019,"befolkning":917,"latitude":70.2144893722,"longitude":21.95211154,"fylke_navn_2019":"FINNMARK","fylke_navn_2020":"TROMS OG FINNMARK"},{"kommunenummer":"2015","navn":"Hasvik","\u00e5r":2019,"befolkning":1045,"latitude":70.5640757152,"longitude":22.4787770757,"fylke_navn_2019":"FINNMARK","fylke_navn_2020":"TROMS OG FINNMARK"},{"kommunenummer":"2017","navn":"Kvalsund","\u00e5r":2019,"befolkning":988,"latitude":70.4194636456,"longitude":24.1812270485,"fylke_navn_2019":"FINNMARK","fylke_navn_2020":"TROMS OG FINNMARK"},{"kommunenummer":"2018","navn":"M\u00e5s\u00f8y","\u00e5r":2019,"befolkning":1235,"latitude":70.8353100628,"longitude":24.7813034776,"fylke_navn_2019":"FINNMARK","fylke_navn_2020":"TROMS OG FINNMARK"},{"kommunenummer":"2019","navn":"Nordkapp","\u00e5r":2019,"befolkning":3218,"latitude":70.9250848248,"longitude":25.8230915755,"fylke_navn_2019":"FINNMARK","fylke_navn_2020":"TROMS OG FINNMARK"},{"kommunenummer":"2020","navn":"Porsanger","\u00e5r":2019,"befolkning":3944,"latitude":70.153759718,"longitude":25.1284757522,"fylke_navn_2019":"FINNMARK","fylke_navn_2020":"TROMS OG FINNMARK"},{"kommunenummer":"2021","navn":"Karasjok","\u00e5r":2019,"befolkning":2673,"latitude":69.4109146033,"longitude":25.1380727859,"fylke_navn_2019":"FINNMARK","fylke_navn_2020":"TROMS OG FINNMARK"},{"kommunenummer":"2022","navn":"Lebesby","\u00e5r":2019,"befolkning":1328,"latitude":70.480131817,"longitude":26.7627309119,"fylke_navn_2019":"FINNMARK","fylke_navn_2020":"TROMS OG FINNMARK"},{"kommunenummer":"2023","navn":"Gamvik","\u00e5r":2019,"befolkning":1169,"latitude":70.796302881,"longitude":27.9024747465,"fylke_navn_2019":"FINNMARK","fylke_navn_2020":"TROMS OG FINNMARK"},{"kommunenummer":"2024","navn":"Berlev\u00e5g","\u00e5r":2019,"befolkning":981,"latitude":70.681382052,"longitude":29.0347295538,"fylke_navn_2019":"FINNMARK","fylke_navn_2020":"TROMS OG FINNMARK"},{"kommunenummer":"2025","navn":"Tana","\u00e5r":2019,"befolkning":2900,"latitude":70.2142541737,"longitude":27.6251404831,"fylke_navn_2019":"FINNMARK","fylke_navn_2020":"TROMS OG FINNMARK"},{"kommunenummer":"2027","navn":"Nesseby","\u00e5r":2019,"befolkning":941,"latitude":70.1386103381,"longitude":28.7750314097,"fylke_navn_2019":"FINNMARK","fylke_navn_2020":"TROMS OG FINNMARK"},{"kommunenummer":"2028","navn":"B\u00e5tsfjord","\u00e5r":2019,"befolkning":2270,"latitude":70.5002129069,"longitude":29.9360248151,"fylke_navn_2019":"FINNMARK","fylke_navn_2020":"TROMS OG FINNMARK"},{"kommunenummer":"2030","navn":"S\u00f8r-Varanger","\u00e5r":2019,"befolkning":10156,"latitude":69.6278640432,"longitude":29.6208725156,"fylke_navn_2019":"FINNMARK","fylke_navn_2020":"TROMS OG FINNMARK"},{"kommunenummer":"5001","navn":"Trondheim","\u00e5r":2019,"befolkning":196159,"latitude":63.3830858997,"longitude":10.3725324354,"fylke_navn_2019":"TR\u00d8NDELAG","fylke_navn_2020":"TR\u00d8NDELAG"},{"kommunenummer":"5004","navn":"Steinkjer","\u00e5r":2019,"befolkning":22090,"latitude":64.0680777935,"longitude":11.7466868069,"fylke_navn_2019":"TR\u00d8NDELAG","fylke_navn_2020":"TR\u00d8NDELAG"},{"kommunenummer":"5005","navn":"Namsos","\u00e5r":2019,"befolkning":13113,"latitude":64.4638340278,"longitude":11.4972543554,"fylke_navn_2019":"TR\u00d8NDELAG","fylke_navn_2020":"TR\u00d8NDELAG"},{"kommunenummer":"5011","navn":"Hemne","\u00e5r":2019,"befolkning":4228,"latitude":63.2714907901,"longitude":9.0400554053,"fylke_navn_2019":"TR\u00d8NDELAG","fylke_navn_2020":"TR\u00d8NDELAG"},{"kommunenummer":"5012","navn":"Snillfjord","\u00e5r":2019,"befolkning":999,"latitude":63.4192348499,"longitude":9.4232999992,"fylke_navn_2019":"TR\u00d8NDELAG","fylke_navn_2020":"TR\u00d8NDELAG"},{"kommunenummer":"5013","navn":"Hitra","\u00e5r":2019,"befolkning":4694,"latitude":63.5453759847,"longitude":8.7513021933,"fylke_navn_2019":"TR\u00d8NDELAG","fylke_navn_2020":"TR\u00d8NDELAG"},{"kommunenummer":"5014","navn":"Fr\u00f8ya","\u00e5r":2019,"befolkning":5068,"latitude":63.7179231907,"longitude":8.6479854316,"fylke_navn_2019":"TR\u00d8NDELAG","fylke_navn_2020":"TR\u00d8NDELAG"},{"kommunenummer":"5015","navn":"\u00d8rland","\u00e5r":2019,"befolkning":5334,"latitude":63.7014521619,"longitude":9.6242045142,"fylke_navn_2019":"TR\u00d8NDELAG","fylke_navn_2020":"TR\u00d8NDELAG"},{"kommunenummer":"5016","navn":"Agdenes","\u00e5r":2019,"befolkning":1693,"latitude":63.5109908327,"longitude":9.7141800464,"fylke_navn_2019":"TR\u00d8NDELAG","fylke_navn_2020":"TR\u00d8NDELAG"},{"kommunenummer":"5017","navn":"Bjugn","\u00e5r":2019,"befolkning":4904,"latitude":63.809187208,"longitude":9.894996719,"fylke_navn_2019":"TR\u00d8NDELAG","fylke_navn_2020":"TR\u00d8NDELAG"},{"kommunenummer":"5018","navn":"\u00c5fjord","\u00e5r":2019,"befolkning":3340,"latitude":63.9836430655,"longitude":10.3890815008,"fylke_navn_2019":"TR\u00d8NDELAG","fylke_navn_2020":"TR\u00d8NDELAG"},{"kommunenummer":"5019","navn":"Roan","\u00e5r":2019,"befolkning":957,"latitude":64.1537370289,"longitude":10.4198201883,"fylke_navn_2019":"TR\u00d8NDELAG","fylke_navn_2020":"TR\u00d8NDELAG"},{"kommunenummer":"5020","navn":"Osen","\u00e5r":2019,"befolkning":947,"latitude":64.2728671718,"longitude":10.6509717147,"fylke_navn_2019":"TR\u00d8NDELAG","fylke_navn_2020":"TR\u00d8NDELAG"},